pnum,stntype,stnstatus,opstatus,sitecity,sitestate,region,lat,lon,elev,project,networks,multi_types,is_realtime,mean_latency_last_hour,mean_latency_last_day,data_complete_last_day,data_complete_last_hour,status
7ODM,GPS,Installed,Operable,Mentone,California,SW,34.1164090089135,-117.0931973154826,762.0968704141211,USGS,,GPS,1,-1,-1,0,0,OK
AB01,GPS,Installed,Operable,Atka,AK,AK,52.20950231478105,-174.20475806022668,25.496269032044484,PBO,"NOTA, PBO",GPS,0,,,,,"Status Unavailable"
AB02,GPS,Installed,Operable,Nikolski,AK,AK,52.970603268699044,-168.85467155720718,192.81178956470043,PBO,"NOTA, PBO",GPS,0,,,,,OK
AB04,GPS,Installed,Operable,SAVOONGA,AK,AK,63.65686266715864,-170.56744338398147,136.55003767540944,PBO,"NOTA, PBO",GPS,0,,,,,OK
AB06,GPS,Installed,Operable,"FALSE PASS",AK,AK,54.88532014846006,-163.4234552372236,500.4433570341018,PBO,"NOTA, PBO",GPS,0,,,,,"Status Unavailable"
AB07,GPS,Installed,Operable,"Sand Point",AK,AK,55.349272437778616,-160.4767562610674,89.4829525312283,PBO,"NOTA, PBO",GPS,1,330,366,100,100,OK
AB08,GPS,Installed,Operable,Mekoryuk,AK,AK,60.38482953818581,-166.2008565916082,26.506104831400783,PBO,"NOTA, PBO",GPS,0,,,,,OK
AB09,GPS,Installed,Operable,WALES,AK,AK,65.6149790429548,-168.06212536180095,162.07121442506093,PBO,"NOTA, PBO",GPS,0,,,,,OK
AB11,GPS,Installed,Operable,Nome,AK,AK,64.56449420170796,-165.3734592113812,349.46612336921106,PBO,"NOTA, PBO",GPS,1,-1,-1,99,100,OK
AB13,GPS,Installed,Operable,"Chignik Lagoon",AK,AK,56.30732001810441,-158.5037921004302,487.76078392855044,PBO,"NOTA, PBO",GPS,0,,,,,"Status Unavailable"
AB14,GPS,Installed,Operable,DILLINGHAM,AK,AK,59.10816362492386,-159.0915326505858,657.650783309532,PBO,"NOTA, PBO",GPS,0,,,,,OK
AB15,GPS,Installed,Operable,Nyac,AK,AK,61.039750159727134,-159.8783618659032,560.3309323324365,PBO,"NOTA, PBO",GPS,0,,,,,"Status Unavailable"
AB17,GPS,Installed,Operable,UNALAKLEET,AK,AK,63.88635700764998,-160.6947316702702,117.43698858854896,PBO,"NOTA, PBO",GPS,0,,,,,OK
AB18,GPS,Installed,Operable,KOTZEBUE,AK,AK,66.85836090599517,-162.61350889085847,37.10602490881025,PBO,"NOTA, PBO",GPS,1,306,1087,0,0,OK
AB21,GPS,Installed,Operable,ADAK,AK,AK,51.86414894892925,-176.66264970335098,59.41463348482816,PBO,"NOTA, PBO",GPS,0,,,,,"Status Unavailable"
AB22,GPS,Installed,Operable,ILIAMNA,AK,AK,59.89931736210573,-154.69825946642598,199.8635930854651,PBO,"NOTA, PBO",GPS,0,,,,,OK
AB25,GPS,Installed,Operable,McGrath,AK,AK,62.92930803960141,-156.02339182285937,961.056651210577,PBO,"NOTA, PBO",GPS,0,,,,,OK
AB27,GPS,Installed,Operable,kobuk,AK,AK,67.0558839637593,-156.90489049820238,508.1031565007344,PBO,"NOTA, PBO",GPS,0,,,,,"Status Unavailable"
AB28,GPS,Installed,Operable,Anchorage,AK,AK,62.09381257559818,-152.81491919541727,1582.7676760673,PBO,"NOTA, PBO",GPS,0,,,,,OK
AB33,GPS,Installed,Operable,Coldfoot,AK,AK,67.25101019975828,-150.17254564526687,334.7614970698129,PBO,"NOTA, PBO",GPS,1,1150,1155,99,100,OK
AB35,GPS,Installed,Operable,"Cape Yakataga",AK,AK,60.079068433707235,-142.38987889999854,536.9208506242664,PBO,"NOTA, PBO",GPS,0,,,,,OK
AB36,GPS,Installed,Operable,"Manley Hot Spring",AK,AK,65.03039625667579,-150.7439857857914,816.540726357594,PBO,"NOTA, PBO",GPS,0,,,,,OK
AB37,GPS,Installed,Operable,Paxson,AK,AK,62.96732218429457,-145.4518842394028,1136.6752380657758,PBO,"NOTA, PBO",GPS,1,1144,1563,96,74,OK
AB39,GPS,Installed,Operable,"Fort Yukon",AK,AK,66.55934438109233,-145.21263269981444,147.68676105284004,PBO,"NOTA, PBO",GPS,0,,,,,OK
AB41,GPS,Installed,Operable,Eagle,AK,AK,64.77732400440001,-141.15806903515642,285.92621476122014,PBO,"NOTA, PBO",GPS,0,,,,,OK
AB42,GPS,Installed,Operable,,AK,AK,59.34037749877107,-138.89881792316046,773.5524436730169,PBO,"NOTA, PBO",GPS,0,,,,,"Status Unavailable"
AB43,GPS,Installed,Operable,n/a,AK,AK,58.19884181401615,-136.64081197458123,27.236020546159544,PBO,"NOTA, PBO",GPS,1,101,92,100,100,OK
AB44,GPS,Installed,Operable,Skagway,AK,AK,59.52803797323826,-135.22830002458798,304.46531922588673,PBO,"NOTA, PBO",GPS,1,1025,1031,98,100,OK
AB45,GPS,Installed,Operable,NA,AK,AK,68.76049265203245,-148.8711536450559,507.0147801139916,PBO,"NOTA, PBO",GPS,0,,,,,OK
AB46,GPS,Installed,Operable,"ARCTIC VILLAGE",AK,AK,68.12067009289589,-145.56790290111064,647.8834990711468,PBO,"NOTA, PBO",GPS,0,,,,,OK
AB48,GPS,Installed,Operable,"Port Alexander",AK,AK,56.24506019336533,-134.64700033465436,5.349694565616703,PBO,"NOTA, PBO",GPS,0,,,,,OK
AB49,GPS,Installed,Operable,Klawock,AK,AK,55.58010061886747,-133.06848822840732,17.553806783470744,PBO,"NOTA, PBO",GPS,1,307,373,0,0,OK
AB50,GPS,Installed,Operable,Juneau,AK,AK,58.41677402676858,-134.54530372899,51.848357554355026,PBO,"NOTA, PBO",GPS,1,1113,1095,99,100,OK
AB51,GPS,Installed,Operable,Petersburg,AK,AK,56.79762152147333,-132.9135641882441,76.05984893987558,PBO,"NOTA, PBO",GPS,1,1185,1157,99,100,OK
ABBZ,GPS,Installed,Operable,"Ross Island",,AntA,-77.456879,166.908938,1734.2656,Polar,Polar,GPS,0,,,,,OK
ABPO,GPS,Installed,Operable,Antananarivo,,noUS,-19.01831,47.22921,1552.992,GGN,,GPS,0,,,,,"Status Unavailable"
ABVI,GPS,Installed,Operable,Anegada,,noUS,18.72968445771217,-64.33248469265499,-35.58880962512906,COCONetRT,"NOTA Affiliated, COCONet","GPS, Meteorological Stations",1,-1,-1,0,0,"Status Unavailable"
AC02,GPS,Installed,Operable,Akhiok,AK,AK,56.95058617620744,-154.18304949271553,126.88724209027512,PBO,"NOTA, PBO",GPS,1,-1,-1,0,0,OK
AC03,GPS,Installed,Operable,"Anchor Point",AK,AK,59.7706352336331,-151.86453441609214,19.77204725959601,PBO,"NOTA, PBO",GPS,1,179,139,100,100,OK
AC06,GPS,Installed,Operable,"Bradley Lake",AK,AK,59.76363592486297,-150.89056096113958,631.569003411233,PBO,"NOTA, PBO",GPS,0,,,,,OK
AC07,GPS,Installed,Operable,Buckland,AK,AK,65.96129078047153,-161.28661663372236,176.32225254732347,PBO,"NOTA, PBO",GPS,0,,,,,"Status Unavailable"
AC08,GPS,Installed,Operable,Homer,AK,AK,58.928772951543344,-153.64470157092987,644.2850451349452,PBO,"NOTA, PBO",GPS,0,,,,,"Status Unavailable"
AC09,GPS,Installed,Operable,Cordova,AK,AK,59.86847979622404,-144.52385386145215,368.94531144300424,PBO,"NOTA, PBO","GPS, Meteorological Stations",0,,,,,OK
AC10,GPS,Installed,Operable,"Cape Sarichef",AK,AK,54.522579697605764,-164.88673029749876,170.52903532613033,USGS,,GPS,0,,,,,"Status Unavailable"
AC11,GPS,Installed,Operable,Chickaloon,AK,AK,61.80707839996425,-148.3317533375553,790.9599797979652,PBO,"NOTA, PBO",GPS,1,101,348,97,100,OK
AC12,GPS,Installed,Operable,"Sand Point",AK,AK,54.83095705685774,-159.58956280025515,84.60574897440999,PBO,"NOTA, PBO",GPS,1,533,729,100,100,OK
AC13,GPS,Installed,Operable,Akhiok,AK,AK,55.821895529599466,-155.62239983948987,222.7536450913096,PBO,"NOTA, PBO",GPS,0,,,,,"Status Unavailable"
AC14,GPS,Installed,Operable,Whittier,AK,AK,60.848703575568166,-147.99958653286063,748.7699504616376,PBO,"NOTA, PBO",GPS,1,114,102,100,100,OK
AC15,GPS,Installed,Operable,"Cooper Landing",AK,AK,60.48133285921329,-149.72401115569002,151.56829684884738,PBO,"NOTA, PBO",GPS,1,40,50,42,76,OK
AC16,GPS,Installed,Operable,,AK,AK,60.51820651824895,-148.09323837243628,34.248930553527785,Other,Other,GPS,0,,,,,"Status Unavailable"
AC17,GPS,Installed,Operable,"Drift River Drainage",AK,AK,60.663899640112625,-152.4038471905293,882.7365629294761,PBO,"NOTA, PBO",GPS,0,,,,,OK
AC18,GPS,Installed,Operable,Homer,AK,AK,58.925955923091884,-152.2495326994988,214.82698566684795,PBO,"NOTA, PBO",GPS,0,,,,,OK
AC19,GPS,Installed,Operable,Farewell,AK,AK,62.51921129593331,-153.60733416264725,546.5490340546866,PBO,"NOTA, PBO",GPS,0,,,,,"Status Unavailable"
AC20,GPS,Installed,Operable,Girdwood,AK,AK,60.929207315861575,-149.35250801396515,43.78281382356998,PBO,"NOTA, PBO","GPS, Meteorological Stations",1,50,30,100,100,OK
AC21,GPS,Installed,Operable,PERRYVILLE,AK,AK,55.921084019759626,-159.12771895918542,170.83994732335114,PBO,"NOTA, PBO",GPS,1,455,599,99,100,OK
AC23,GPS,Installed,Operable,SOLDOTNA,AK,AK,60.47509100556234,-150.87795627416475,80.90298634202833,PBO,"NOTA, PBO",GPS,1,74,66,100,100,OK
AC24,GPS,Installed,Operable,"King Salmon",AK,AK,58.68157021250099,-156.652756701362,36.37073975700762,PBO,"NOTA, PBO",GPS,1,48,46,99,100,OK
AC25,GPS,Installed,Operable,"KING COVE",AK,AK,55.08896588249135,-162.31405307071228,584.2783086002552,PBO,"NOTA, PBO",GPS,0,,,,,OK
AC26,GPS,Installed,Operable,KODIAK,AK,AK,58.21455364852214,-154.15029379957178,190.20110698436363,PBO,"NOTA, PBO",GPS,0,,,,,OK
AC27,GPS,Installed,Operable,"McNeil River Game Refuge",AK,AK,59.252504131719505,-154.16288188731258,417.5472658476404,PBO,"NOTA, PBO",GPS,0,,,,,OK
AC28,GPS,Installed,Operable,"Sand Point",AK,AK,55.078486899155116,-160.04915973934632,365.00997564099174,PBO,"NOTA, PBO",GPS,0,,,,,OK
AC29,GPS,Installed,Operable,"Middleton Island",AK,AK,59.42958922388372,-146.33997953873734,56.61428209496015,PBO,"NOTA, PBO",GPS,0,,,,,OK
AC31,GPS,Installed,Operable,ELIM,AK,AK,64.63797383836754,-162.23912627937548,228.33262066958397,PBO,"NOTA, PBO",GPS,0,,,,,OK
AC32,GPS,Installed,Operable,Susitna,AK,AK,61.473118792883255,-150.73691901024304,1347.7928076757175,PBO,"NOTA, PBO",GPS,1,3,5,95,100,OK
AC33,GPS,Installed,Operable,Petersville,AK,AK,62.6711758342224,-150.68507726602704,1521.1605922063268,PBO,"NOTA, PBO",GPS,0,,,,,OK
AC34,GPS,Installed,Operable,"Old Harbor",AK,AK,57.22002714886925,-153.27918273483755,103.28774223460057,PBO,"NOTA, PBO","GPS, Meteorological Stations",0,,,,,OK
AC35,GPS,Installed,Operable,Homer,AK,AK,59.375810418047124,-150.79324833702825,408.59982643530356,PBO,"NOTA, PBO",GPS,0,,,,,"Status Unavailable"
AC36,GPS,Installed,Operable,Nikiski,AK,AK,60.95531563153042,-150.60835032130095,46.530675778073785,PBO,"NOTA, PBO",GPS,0,,,,,OK
AC37,GPS,Installed,Operable,"Port Alsworth",AK,AK,60.43968466118025,-153.8653837441097,1626.624765347766,PBO,"NOTA, PBO",GPS,0,,,,,OK
AC38,GPS,Installed,Operable,Kodiak,AK,AK,57.75368414569145,-153.34187585665933,43.914510247519935,PBO,"NOTA, PBO",GPS,0,,,,,OK
AC39,GPS,Installed,Operable,"Shuayk Island",AK,AK,58.609717329090955,-152.39407505440778,157.27639090494876,PBO,"NOTA, PBO",GPS,0,,,,,OK
AC40,GPS,Installed,Operable,"Port Heiden",AK,AK,56.930348710529486,-158.6185712855725,39.920166069091934,PBO,"NOTA, PBO",GPS,0,,,,,"Status Unavailable"
AC41,GPS,Installed,Operable,"Port Moller",AK,AK,55.9086650763225,-160.40730363901318,407.7373939762785,PBO,"NOTA, PBO",GPS,0,,,,,"Status Unavailable"
AC42,GPS,Installed,Operable,"Sanak Island",AK,AK,54.47177438519119,-162.78365288378123,257.92557551276434,PBO,"NOTA, PBO",GPS,0,,,,,OK
AC43,GPS,Installed,Operable,Seward,AK,AK,59.521281511025016,-149.62873963794462,69.5929169807397,PBO,"NOTA, PBO",GPS,0,,,,,"Status Unavailable"
AC44,GPS,Installed,Operable,Anchorage,AK,AK,61.242172311569156,-149.5671289456143,832.2025305510618,PBO,"NOTA, PBO","GPS, Meteorological Stations",1,206,199,95,100,OK
AC45,GPS,Installed,Operable,"Island of Sitkinak",AK,AK,56.56445503637924,-154.18096648452737,451.027386645084,PBO,"NOTA, PBO",GPS,0,,,,,OK
AC46,GPS,Installed,Operable,Skwentna,AK,AK,61.9862665551366,-151.5240037325963,619.8200981735187,PBO,"NOTA, PBO",GPS,0,,,,,OK
AC47,GPS,Installed,Operable,"Drift River",AK,AK,60.081448233940314,-152.6239454428102,922.3995261240393,PBO,"NOTA, PBO",GPS,0,,,,,"Status Unavailable"
AC48,GPS,Installed,Operable,Valdez,AK,AK,60.64586503630686,-147.3430230153313,379.5282921376565,PBO,"NOTA, PBO",GPS,1,9,6,100,100,OK
AC50,GPS,Installed,Operable,,AK,AK,65.55384691391811,-164.56656980032986,516.8497796574409,PBO,"NOTA, PBO",GPS,0,,,,,OK
AC51,GPS,Installed,Operable,Tyonek,AK,AK,61.498080542066866,-151.83534952244884,957.4996371518748,PBO,"NOTA, PBO",GPS,0,,,,,OK
AC52,GPS,Installed,Operable,"Pilot Point",AK,AK,57.56724710374818,-157.5742185423781,51.84846437717682,PBO,"NOTA, PBO",GPS,0,,,,,"Status Unavailable"
AC53,GPS,Installed,Operable,Willow,AK,AK,61.76897079256531,-150.06895576815418,57.502083995906496,PBO,"NOTA, PBO",GPS,1,378,436,100,100,"Status Unavailable"
AC57,GPS,Installed,Operable,Valdez,AK,AK,61.138598260791085,-145.7427093408735,826.5224663906881,PBO,"NOTA, PBO",GPS,1,-1,-1,100,100,OK
AC58,GPS,Installed,Operable,"St. Paul",AK,AK,57.156086231175635,-170.21782053335735,19.38210226657556,PBO,"NOTA, PBO",GPS,0,,,,,OK
AC59,GPS,Installed,Operable,"Ursus Head",AK,AK,59.567194783808226,-153.58520169119913,308.6631724281199,PBO,"NOTA, PBO",GPS,1,101,154,99,100,OK
AC60,GPS,Installed,Operable,"Shemya Island",AK,AK,52.71461972190593,174.07626489085052,18.30586360213042,PBO,"NOTA, PBO",GPS,1,-1,-1,0,0,OK
AC61,GPS,Installed,Operable,CHICKEN,AK,AK,64.02925792367786,-142.07584911674059,745.4046979962702,PBO,"NOTA, PBO",GPS,0,,,,,OK
AC62,GPS,Installed,Operable,Paxson,AK,AK,63.08360538628942,-146.31270174444342,1347.1788562071702,PBO,"NOTA, PBO",GPS,0,,,,,OK
AC63,GPS,Installed,Operable,Paxson,AK,AK,63.50242436465893,-145.84724707923178,815.1648900891879,PBO,"NOTA, PBO",GPS,1,1126,1234,75,100,OK
AC64,GPS,Installed,Operable,Chistochina,AK,AK,62.714016005178955,-144.3039939050721,774.5832528059516,PBO,"NOTA, PBO",GPS,1,-1,1146,0,0,OK
AC65,GPS,Installed,Operable,Mentasta,AK,AK,62.83151066305686,-143.7042224960275,735.9044402903803,PBO,"NOTA, PBO",GPS,0,,,,,OK
AC66,GPS,Installed,Operable,"Amchitka Island",AK,AK,51.37812822787896,179.30132128686108,106.78960704438107,PBO,"NOTA, PBO",GPS,0,,,,,OK
AC67,GPS,Installed,Operable,KODIAK,AK,AK,57.790717380102386,-152.42543698058182,347.3424600922841,PBO,"NOTA, PBO",GPS,1,63,45,100,100,OK
AC70,GPS,Installed,Operable,CANTWELL,AK,AK,63.30470953633319,-148.18832524703143,810.8924286025716,PBO,"NOTA, PBO",GPS,0,,,,,OK
AC71,GPS,Installed,Operable,"Delta Junction",AK,AK,64.049303258488,-145.71362524498883,364.03574882875114,PBO,"NOTA, PBO",GPS,1,1189,1178,100,100,OK
AC72,GPS,Installed,Operable,"Delta Junction",AK,AK,63.69505663694597,-145.88769794414588,558.8600673025511,PBO,"NOTA, PBO",GPS,1,1180,1336,87,100,OK
AC74,GPS,Installed,Operable,Cantwell,AK,AK,63.46435499236529,-148.807262380923,668.6211250458803,PBO,"NOTA, PBO",GPS,1,92,91,99,100,OK
AC75,GPS,Installed,Operable,Cantwell,AK,AK,62.999302908946476,-149.6088243881619,608.6852699270386,PBO,"NOTA, PBO",GPS,1,92,97,100,100,OK
AC76,GPS,Installed,Operable,Tok,AK,AK,63.03999692761249,-143.25881677986877,1585.321781886384,PBO,"NOTA, PBO",GPS,0,,,,,OK
AC77,GPS,Installed,Operable,Paxson,AK,AK,62.688031570598085,-145.42626221088213,746.9161994957824,PBO,"NOTA, PBO",GPS,0,,,,,OK
AC78,GPS,Installed,Operable,Northway,AK,AK,63.11348986095331,-142.02793915077834,643.7530933378632,PBO,"NOTA, PBO",GPS,0,,,,,OK
AC79,GPS,Installed,Operable,Seward,AK,AK,59.99787172014745,-147.40305048882024,287.76039492805216,PBO,"NOTA, PBO",GPS,0,,,,,OK
AC80,GPS,Installed,Operable,Skwentna,AK,AK,62.39407580804798,-151.76504366915984,1114.5488501723723,PBO,"NOTA, PBO",GPS,0,,,,,OK
ACHO,GPS,Installed,Operable,Achotines,,Coco,7.414731077069346,-80.17310628781831,35.59945114376362,COCONet,"NOTA, COCONet","GPS, Meteorological Stations",1,-1,-1,99,100,OK
ACP1,GPS,Installed,Operable,Sherman,Colon,Coco,9.371393211725566,-79.94985810107153,12.78027562167198,COCONet,"NOTA Affiliated, COCONet",GPS,0,,,,,"Status Unavailable"
ACP6,GPS,Installed,Operable,Panama,Panama,Coco,9.238477170823284,-79.4078218731866,943.5331897775188,COCONet,"NOTA Affiliated, COCONet",GPS,0,,,,,"Status Unavailable"
ACSB,GPS,Installed,Operable,Oceanside,CA,SW,33.27426680714231,-117.44489457148251,-12.290968144564717,"SoCal Edison","NOTA, SoCal Edison",GPS,1,0,0,99,100,OK
ACSO,GPS,Installed,Operable,Delaware,OH,East,40.232360990270855,-82.98153361077101,248.17970069722938,PBO,"NOTA, PBO",GPS,1,4,3,100,100,"Status Unavailable"
ACSX,GPS,Installed,Operable,Oceanside,CA,SW,33.274266804175966,-117.44489456833273,-12.288325969751964,PBO-extended,"NOTA, PBO",GPS,1,0,0,100,100,"Status Unavailable"
AGHI,GPS,Installed,Operable,"Aghiyuk Island",Alaska,AK,56.195048987322025,-156.80186680248465,190.52603682549392,PI,PI,GPS,0,,,,,OK
AGMT,GPS,Installed,Operable,"Johnson Valley",CA,SW,34.59428181823997,-116.42938156422292,1337.8527142215696,PBO,"NOTA, PBO",GPS,1,-1,-1,100,100,OK
AGNS,GPS,Installed,Operable,Agness,OR,NW,42.55276533116909,-124.05911335823333,51.38335831563872,PBO,"NOTA Affiliated, PBO",GPS,1,351,408,100,100,OK
AGPR,GPS,Installed,Operable,Aguadilla,"Puerto Rico",N/A,18.467533687206316,-67.11123441288618,73.00884534693469,COCONet,"NOTA Affiliated, COCONet",GPS,0,,,,,"Status Unavailable"
AHID,GPS,Installed,Operable,Auburn,WY,East,42.773118363816785,-111.06374286747521,1975.559974931154,PBO,"NOTA, PBO",GPS,0,,,,,OK
AIR1,BSM,Installed,Operable,-,-,Coco,16.7408514345,-62.2138562081,82.2349,COCONet,"NOTA, COCONet","Borehole Strainmeters",0,,,,,"Status Unavailable"
AIRS,GPS,Installed,Operable,-,-,Coco,16.74082960567977,-62.21385488911301,84.44430227921865,COCONet,"NOTA, COCONet",GPS,1,174,174,100,100,OK
AKAL,GPS,Installed,Operable,Akhalkalaki,,noUS,41.41011823,43.49268137,1724.0829,Other,Other,GPS,0,,,,,"Status Unavailable"
AKHA,GPS,Installed,Operable,Akhaltsikhe,,noUS,41.63078382,42.96813773,1271.5064,Other,Other,GPS,0,,,,,"Status Unavailable"
ALAM,GPS,Installed,Operable,Alamo,NV,East,37.357957318606736,-115.15846112535607,1090.0269656320968,PBO-extended,"NOTA, PBO",GPS,1,287,291,100,100,OK
ALEF,GPS,Installed,Operable,Houston,Texas,N/A,29.69183305,-95.63505211,5.5986,PI,PI,GPS,0,,,,,"Status Unavailable"
ALIG,GPS,Installed,Operable,Mtskhetisjvari,,noUS,42.1046463455,43.6490121663,838.17306,Other,Other,GPS,0,,,,,"Status Unavailable"
ALPA,GPS,Installed,Operable,Rioacha,,Coco,11.527985072637888,-72.91775655065999,1.8040485994078352,COCONet,"NOTA Affiliated, COCONet",GPS,0,,,,,"Status Unavailable"
ALPP,GPS,Installed,Operable,Neenach,California,SW,34.82449222718424,-118.69480400459909,918.12838589978,USGS,,GPS,1,-1,-1,100,100,OK
ALUT,GPS,Installed,Operable,Alta,Utah,N/A,40.583907198020285,-111.62021649004237,2824.01770017122,PI,PI,GPS,0,,,,,OK
AMU2,GPS,Installed,Operable,"South Pole",Antarctica,AntA,-89.99815643,-74.70185406,2816.8275,Polar,Polar,GPS,0,,,,,OK
ANA1,GPS,Installed,Operable,"Anacapa Island",CA,SW,34.01500863752474,-119.3634757546204,22.4537393256242,PBO,"NOTA, PBO",GPS,1,5,20,100,100,OK
ANDC,GPS,Installed,Operable,"Andronica Island",Alaska,AK,55.32319946599079,-160.08824598259892,370.8058067129614,PI,PI,GPS,0,,,,,"Status Unavailable"
ANNQ,GPS,Installed,Operable,"Port Heiden",Alaska,AK,56.932754,-158.1131,371,USGS,,GPS,0,,,,,OK
ANVM,GPS,Installed,Operable,"Port Heiden",Alaska,AK,56.8858,-56.8858,591,USGS,,GPS,0,,,,,OK
AOPR,GPS,Installed,Operable,Arecibo,,noUS,18.34653097648252,-66.7540914900485,319.573567133398,COCONetRT,"NOTA Affiliated, COCONet","GPS, Meteorological Stations",1,-1,-1,100,100,"Status Unavailable"
APEC,GPS,Installed,Operable,Apuela,,noUS,0.332829,-78.5461,1722,Other,Other,GPS,0,,,,,"Status Unavailable"
AQUE,GPS,Installed,Operable,,,N/A,37.23811,-116.15991,1910,PI,PI,GPS,0,,,,,OK
AR27,GPS,Installed,Operable,"Camp Pendleton",CA,SW,33.34185043457176,-117.32493417203321,32.32397362071768,"SoCal Edison","NOTA, SoCal Edison",GPS,1,4,6,100,100,OK
AR53,GPS,Installed,Operable,"Camp Pendleton",CA,SW,33.381137202630875,-117.4765087060315,111.05936857982046,"SoCal Edison","NOTA, SoCal Edison",GPS,1,252,336,99,100,OK
AREQ,GPS,Installed,Operable,Arequipa,,N/A,-16.465517,-71.49279666666666,2488.9226,GGN,,GPS,0,,,,,"Status Unavailable"
ARM1,GPS,Installed,Operable,Arvin,California,SW,35.201252268202566,-118.91042745067205,76.29773255029473,USGS,,GPS,1,-1,-1,0,0,OK
ARM2,GPS,Installed,Operable,Arvin,California,SW,35.201259961758645,-118.91056223877763,76.2950599868136,USGS,,GPS,1,-1,-1,100,100,OK
ARML,GPS,Installed,Operable,Armorel,Arkansas,N/A,35.91728218144476,-89.80289950484996,50.03269940381522,PI,PI,GPS,0,,,,,OK
ARVL,GPS,Installed,Operable,McMurdo,,AntA,-77.82944,166.66364,131.9,Polar,Polar,GPS,0,,,,,"Status Unavailable"
ASKY,GPS,Installed,Operable,Qaasuitsup,Greenland,Arct,75.7261293335969,-58.257355508328885,687.4919616815274,Polar,Polar,GPS,0,,,,,OK
AT01,GPS,Installed,Operable,"St Michael",Alsaka,AK,63.48404485412903,-162.00640169550874,21.61127017757063,PI,PI,GPS,0,,,,,OK
ATQK,GPS,Installed,Operable,Atqasuk,Alaska,Arct,70.472033193,-157.4078686,28.0096,Polar,Polar,"GPS, Meteorological Stations",0,,,,,"Status Unavailable"
ATT3,GPS,Installed,Operable,"Santo Domingo","Distrito Nacional",Coco,18.506934370444387,-69.97917168042352,29.552325008386344,COCONet,"NOTA Affiliated, COCONet",GPS,0,,,,,OK
ATW2,GPS,Installed,Operable,Palmer,AK,AK,61.597753217658834,-149.13229666156602,97.11438515444753,PBO,"NOTA, PBO",GPS,1,88,87,100,100,OK
AULT,GPS,Installed,Operable,Cypress,Texas,N/A,29.997776,-95.744668,25.3,PI,PI,GPS,0,,,,,OK
AV01,GPS,Installed,Operable,"Augustine Volcano",AK,AK,59.35852734100667,-153.4608022157081,487.2923350966811,PBO,"NOTA, PBO",GPS,1,1201,1301,99,100,OK
AV02,GPS,Installed,Operable,"Augustine Volcano",AK,AK,59.33297111882603,-153.42839217160684,229.8862093091161,PBO,"NOTA, PBO",GPS,1,56851,19093,0,0,OK
AV04,GPS,Installed,Operable,"Augustine Volcano",AK,AK,59.36257979649303,-153.44467433193506,916.0013883737238,PBO,"NOTA, PBO",GPS,0,,,,,OK
AV06,GPS,Installed,Operable,Akutan,AK,AK,54.14717712556912,-165.76572177312502,463.1468925069036,USGS,,GPS,0,,,,,OK
AV07,GPS,Installed,Operable,Akutan,AK,AK,54.162934829677496,-166.03853837996704,521.163408603094,USGS,,GPS,0,,,,,OK
AV08,GPS,Installed,Operable,Akutan,AK,AK,54.136297077149784,-166.02827306603606,598.4437404356398,USGS,,"GPS, Tiltmeters",0,,,,,"Status Unavailable"
AV09,GPS,Installed,Operable,Unalaska,AK,AK,53.87563243667612,-166.54183764001374,105.72806312385677,PBO,"NOTA, PBO",GPS,1,62,33,98,100,OK
AV10,GPS,Installed,Operable,"Akutan  ",AK,AK,54.097607087964306,-165.93376592216126,329.60952693781184,USGS,,"GPS, Tiltmeters",0,,,,,OK
AV11,GPS,Installed,Operable,"Augustine Volcano",AK,AK,59.37062448763917,-153.3546868513466,115.00457398672378,PBO,"NOTA, PBO",GPS,1,1616,1400,99,100,OK
AV12,GPS,Installed,Operable,Akutan,AK,AK,54.2107974504938,-165.8975469147937,404.7873616051224,USGS,,GPS,0,,,,,OK
AV13,GPS,Installed,Operable,"Akutan  ",AK,AK,54.153079061923904,-165.89781621110433,494.8785767171488,USGS,,"GPS, Tiltmeters",0,,,,,OK
AV14,GPS,Installed,Operable,"Akutan  ",AK,AK,54.118892493900184,-165.84156944199776,396.41043892752367,USGS,,"GPS, Tiltmeters",0,,,,,OK
AV15,GPS,Installed,Operable,"Akutan  ",AK,AK,54.10019161585339,-165.71011410332733,457.4790811111292,USGS,,GPS,0,,,,,OK
AV16,GPS,Installed,Operable,"Augustine Volcano",AK,AK,59.38590776275747,-153.5350463083552,25.45995716990792,PBO,"NOTA, PBO",GPS,0,,,,,OK
AV17,GPS,Installed,Operable,"Augustine Volcano",AK,AK,59.40394339602048,-153.45144648516202,29.467000781780538,PBO,"NOTA, PBO",GPS,0,,,,,OK
AV18,GPS,Installed,Operable,"Augustine Volcano",AK,AK,59.38043066197028,-153.43683492961895,367.1907524670096,PBO,"NOTA, PBO",GPS,0,,,,,OK
AV19,GPS,Installed,Operable,"Augustine Volcano",AK,AK,59.354904665795054,-153.41432918796392,647.4437622618435,PBO,"NOTA, PBO",GPS,1,4911,4869,0,0,"Status Unavailable"
AV20,GPS,Installed,Operable,"Augustine Volcano",AK,AK,59.347378333916154,-153.4282069864639,542.2604234101209,PBO,"NOTA, PBO",GPS,0,,,,,"Status Unavailable"
AV24,GPS,Installed,Operable,"Cape Sarichef",AK,AK,54.589982747474636,-164.75480502142543,481.826479257238,USGS,,"GPS, Tiltmeters",0,,,,,OK
AV25,GPS,Installed,Operable,"Cape Sarichef",AK,AK,54.530001163935346,-164.77950013392132,652.0514394057165,USGS,,"GPS, Tiltmeters",0,,,,,"Status Unavailable"
AV26,GPS,Installed,Operable,"Cape Sarichef",AK,AK,54.57165304730713,-164.58046483507047,577.7204242779239,USGS,,"GPS, Tiltmeters",0,,,,,OK
AV27,GPS,Installed,Operable,"Cape Sarichef",AK,AK,54.49234836401307,-164.7231648797395,978.0392839995453,USGS,,"GPS, Tiltmeters",0,,,,,OK
AV29,GPS,Installed,Operable,"Cape Sarichef",AK,AK,54.47235068993967,-164.58615006675907,972.0086975924064,Other,Other,"GPS, Tiltmeters",0,,,,,"Status Unavailable"
AV34,GPS,Installed,Operable,"False Pass",AK,AK,54.724907153935796,-163.71292012858822,636.4441264901556,USGS,,GPS,0,,,,,OK
AV35,GPS,Installed,Operable,"Cape Sarichef",AK,AK,54.84669304342845,-164.3869172086043,647.0189196329593,USGS,,GPS,0,,,,,OK
AV36,GPS,Installed,Operable,"False Pass",AK,AK,54.77179251838517,-164.12680471357808,648.4383521257604,USGS,,"GPS, Tiltmeters",0,,,,,OK
AV37,GPS,Installed,Operable,"False Pass",AK,AK,54.70937809225988,-163.9972355676878,796.0856857234871,USGS,,"GPS, Tiltmeters",0,,,,,OK
AV38,GPS,Installed,Operable,"False Pass",AK,AK,54.83146697515516,-163.78087448982293,492.3547024604595,USGS,,GPS,0,,,,,OK
AV39,GPS,Installed,Operable,"False Pass",AK,AK,54.811340066580875,-163.99846726076208,797.4063490493977,USGS,,"GPS, Tiltmeters",0,,,,,OK
AV40,GPS,Installed,Operable,"False Pass",AK,AK,54.6445353440448,-163.74296839205437,413.97418317272763,USGS,,GPS,0,,,,,OK
AVN2,BSM,Installed,Operable,,,N/A,36.53212,-96.081021,261,PBO,"NOTA, PBO","Borehole Strainmeters",0,,,,,"Status Unavailable"
AVRY,GPS,Installed,Operable,"Apple Valley",CA,SW,34.468302221775346,-117.15397563807994,888.9336549936984,PBO,"NOTA, PBO",GPS,1,1109,1295,51,64,OK
AZRY,GPS,Installed,Operable,Anza,California,SW,33.540074393804346,-116.62970192639435,1265.7200710282298,USGS,,GPS,1,-1,-1,100,100,OK
AZU1,GPS,Installed,Operable,Azusa,CA,SW,34.12602069369435,-117.8964925802027,144.76111902773914,PBO,"NOTA, PBO",GPS,1,6,27,100,100,"Status Unavailable"
B001,BSM,Installed,Operable,Sequim,WA,RegB,48.04307,-123.13141,237,PBO,"NOTA, PBO","Borehole Strainmeters, Seismometers",0,,,,,"Status Unavailable"
B003,BSM,Installed,Operable,"Floe Quarry",WA,RegB,48.06236,-124.14086,284.6646,PBO,"NOTA, PBO","Borehole Strainmeters, Seismometers",0,,,,,"Status Unavailable"
B004,BSM,Installed,Operable,Sekiu,WA,RegB,48.20193,-124.42701,30,PBO,"NOTA Affiliated, PBO","Borehole Strainmeters, Seismometers, Meteorological Stations",0,,,,,"Status Unavailable"
B005,BSM,Installed,Operable,"Port Angeles",WA,RegB,48.059549,-123.503278,302.7,PBO,"NOTA, PBO","Borehole Strainmeters, Seismometers",0,,,,,"Status Unavailable"
B006,BSM,Installed,Operable,"Port Angeles",WA,RegB,48.0588,-123.5008,302,PBO,"NOTA, PBO","Borehole Strainmeters, Seismometers",0,,,,,"Status Unavailable"
B007,BSM,Installed,Operable,"Port Angeles",WA,RegB,48.05758,-123.50411,293,PBO,"NOTA, PBO","Borehole Strainmeters, Seismometers",0,,,,,"Status Unavailable"
B009,BSM,Installed,Operable,Sidney,BC,RegA,48.64867,-123.45117,15,PBO,"NOTA, PBO","Borehole Strainmeters, Seismometers",0,,,,,"Status Unavailable"
B010,BSM,Installed,Operable,Sidney,BC,RegA,48.65017,-123.45133,5,PBO,"NOTA, PBO","Borehole Strainmeters, Seismometers",0,,,,,"Status Unavailable"
B011,BSM,Installed,Operable,Sidney,BC,RegA,48.64954,-123.44819,22,PBO,"NOTA, PBO","Borehole Strainmeters",0,,,,,"Status Unavailable"
B012,BSM,Installed,Operable,Ucluelet,BC,RegA,48.92463,-125.54198,13,PBO,"NOTA, PBO","Borehole Strainmeters, Seismometers",0,,,,,"Status Unavailable"
B013,BSM,Installed,Operable,Seattle,WA,RegB,47.813,-122.9108,75.3,PBO,"NOTA, PBO","Borehole Strainmeters, Seismometers",0,,,,,"Status Unavailable"
B014,BSM,Installed,Operable,"Olympic NP",WA,RegB,47.5133,-123.8125,64.7,PBO,"NOTA, PBO","Borehole Strainmeters, Seismometers",0,,,,,"Status Unavailable"
B017,BSM,Installed,Operable,Montesano,WA,RegB,46.996,-123.5575,33.9,PBO,"NOTA, PBO","Borehole Strainmeters, Seismometers",0,,,,,"Status Unavailable"
B018,BSM,Installed,Operable,Olympia,WA,RegB,46.9795,-123.0203,10,PBO,"NOTA, PBO","Borehole Strainmeters, Seismometers",0,,,,,"Status Unavailable"
B019,BSM,Installed,Operable,Raymond,WA,RegB,46.6527,-123.6518,9,PBO,"NOTA, PBO","Borehole Strainmeters, Seismometers",0,,,,,"Status Unavailable"
B020,BSM,Installed,Operable,Naselle,WA,RegB,46.3827,-123.8445,31.2,PBO,"NOTA, PBO","Borehole Strainmeters, Seismometers, Meteorological Stations",0,,,,,"Status Unavailable"
B022,BSM,Installed,Operable,Seaside,OR,RegB,45.95461,-123.93105,10,PBO,"NOTA, PBO","Borehole Strainmeters, Seismometers, Meteorological Stations",0,,,,,"Status Unavailable"
B023,BSM,Installed,Operable,Claskanie,OR,RegB,46.1112,-123.0787,177.4,PBO,"NOTA, PBO","Borehole Strainmeters, Seismometers",0,,,,,"Status Unavailable"
B024,BSM,Installed,Operable,Nehalem,OR,RegB,45.6378,-123.8558,37.7,PBO,"NOTA, PBO","Borehole Strainmeters, Seismometers, Meteorological Stations",0,,,,,"Status Unavailable"
B026,BSM,Installed,Operable,Cloverdale,OR,RegB,45.309351,-123.823049,232,PBO,"NOTA, PBO","Borehole Strainmeters, Seismometers",0,,,,,"Status Unavailable"
B027,BSM,Installed,Operable,Lebanon,OR,RegB,44.497333,-122.962167,216,PBO,"NOTA, PBO","Borehole Strainmeters, Seismometers, Meteorological Stations",0,,,,,"Status Unavailable"
B028,BSM,Installed,Operable,Lebenon,OR,RegB,44.493667,-122.963833,140,PBO,"NOTA, PBO","Borehole Strainmeters, Seismometers",0,,,,,"Status Unavailable"
B030,BSM,Installed,Operable,"Fall Creek",OR,RegB,43.9713,-122.7717,263.6,PBO,"NOTA, PBO","Borehole Strainmeters, Seismometers",0,,,,,"Status Unavailable"
B031,BSM,Installed,Operable,Drain,OR,RegB,43.6643,-123.3967,71,PBO,"NOTA, PBO","Borehole Strainmeters, Seismometers",0,,,,,"Status Unavailable"
B032,BSM,Installed,Operable,Drain,OR,RegB,43.668,-123.3923,63.8,PBO,"NOTA, PBO","Borehole Strainmeters, Seismometers",0,,,,,"Status Unavailable"
B033,BSM,Installed,Operable,Glide,OR,RegB,43.2917,-123.1245,312.1,PBO,"NOTA, PBO","Borehole Strainmeters, Seismometers",0,,,,,"Status Unavailable"
B035,BSM,Installed,Operable,"Grants Pass",OR,RegB,42.50351,-123.38342,370,PBO,"NOTA, PBO","Borehole Strainmeters, Seismometers",0,,,,,"Status Unavailable"
B036,BSM,Installed,Operable,"Grants Pass",OR,RegB,42.505833,-123.381667,315.3,PBO,"NOTA, PBO","Borehole Strainmeters, Seismometers",0,,,,,"Status Unavailable"
B039,BSM,Installed,Operable,Gazelle,CA,RegB,41.4667,-122.4847,923.9,PBO,"NOTA, PBO","Borehole Strainmeters, Seismometers",0,,,,,"Status Unavailable"
B040,BSM,Installed,Operable,Montague,CA,RegB,41.8308,-122.4205,819.5,PBO,"NOTA, PBO","Borehole Strainmeters, Seismometers, Meteorological Stations",0,,,,,"Status Unavailable"
B045,BSM,Installed,Operable,Pepperwood,CA,RegC,40.436,-123.9965,29.4,PBO,"NOTA, PBO","Borehole Strainmeters, Seismometers",0,,,,,"Status Unavailable"
B046,SEISMIC,Installed,Operable,Petrolia,CA,RegC,40.32197,-124.2843,44,PBO,"NOTA, PBO",Seismometers,0,,,,,"Status Unavailable"
B047,SEISMIC,Installed,Operable,,CA,RegC,40.249933,-124.169848,80,PBO,"NOTA, PBO",Seismometers,0,,,,,"Status Unavailable"
B049,SEISMIC,Installed,Operable,Miranda,CA,RegC,40.2375,-123.8197,117,PBO,"NOTA, PBO",Seismometers,0,,,,,"Status Unavailable"
B054,BSM,Installed,Operable,Orinda,CA,RegC,37.8602,-122.1995,405.6,PBO,"NOTA, PBO","Borehole Strainmeters, Seismometers",0,,,,,"Status Unavailable"
B057,BSM,Installed,Operable,"Lucas Valley",CA,RegC,38.0273,-122.5655,14.4,PBO,"NOTA, PBO","Borehole Strainmeters, Seismometers",0,,,,,"Status Unavailable"
B058,BSM,Installed,Operable,"San Juan Bautista",CA,RegC,36.7995,-121.5808,114.2,PBO,"NOTA, PBO","Borehole Strainmeters, Seismometers",0,,,,,"Status Unavailable"
B065,BSM,Installed,Operable,"San Juan Bautista",CA,RegC,36.74366667,-121.4741667,643,PBO,"NOTA, PBO","Borehole Strainmeters, Seismometers",0,,,,,"Status Unavailable"
B066,BSM,Installed,Operable,"San Juan Bautista",CA,RegC,36.8575333,-121.592167,67,PBO,"NOTA, PBO","Borehole Strainmeters, Seismometers",0,,,,,"Status Unavailable"
B067,BSM,Installed,Operable,"San Juan Bautista",CA,RegC,36.765,-121.5655,126.2,PBO,"NOTA, PBO","Borehole Strainmeters, Seismometers",0,,,,,"Status Unavailable"
B072,BSM,Installed,Operable,Parkfield,CA,RegC,35.831,-120.345,397.7,PBO,"NOTA, PBO","Borehole Strainmeters, Seismometers",0,,,,,"Status Unavailable"
B073,BSM,Installed,Operable,Parkfield,CA,RegC,35.9467,-120.4717,535.28,PBO,"NOTA, PBO","Borehole Strainmeters, Seismometers, Meteorological Stations",0,,,,,"Status Unavailable"
B075,BSM,Installed,Operable,Parkfield,CA,RegC,35.9292,-120.5153,583,PBO,"NOTA, PBO","Borehole Strainmeters, Seismometers",0,,,,,"Status Unavailable"
B076,BSM,Installed,Operable,Parkfield,CA,RegC,35.9398,-120.4248,445,PBO,"NOTA, PBO","Borehole Strainmeters, Seismometers",0,,,,,"Status Unavailable"
B078,BSM,Installed,Operable,Parkfield,CA,RegC,35.8377,-120.3452,386.8,PBO,"NOTA, PBO","Borehole Strainmeters, Seismometers",0,,,,,"Status Unavailable"
B079,BSM,Installed,Operable,Parkfield,CA,RegC,35.7157,-120.2057,436.6,PBO,"NOTA Affiliated, PBO","Borehole Strainmeters, Seismometers",0,,,,,"Status Unavailable"
B081,BSM,Installed,Operable,"Mountain Center ",CA,RegA,33.711167,-116.714167,1467,PBO,"NOTA, PBO","Borehole Strainmeters, Meteorological Stations",0,,,,,"Status Unavailable"
B082,BSM,Installed,Inoperable,Anza,CA,RegA,33.598182,-116.5960046,1374.842,PBO,"NOTA Affiliated, PBO","Borehole Strainmeters",0,,,,,"Status Unavailable"
B084,BSM,Installed,Operable,Anza,CA,RegA,33.61157,-116.45637,1271,PBO,"NOTA, PBO","Borehole Strainmeters, Meteorological Stations",0,,,,,"Status Unavailable"
B086,BSM,Installed,Operable,Anza,CA,RegA,33.5575,-116.531,1392,PBO,"NOTA, PBO","Borehole Strainmeters, Meteorological Stations",0,,,,,"Status Unavailable"
B087,BSM,Installed,Operable,Anza,CA,RegA,33.4955,-116.6026667,1139,PBO,"NOTA, PBO","Borehole Strainmeters, Meteorological Stations",0,,,,,"Status Unavailable"
B088,BSM,Installed,Operable,Aguanga,CA,RegA,33.37495,-116.62052,1403.87,PBO,"NOTA, PBO","Borehole Strainmeters, Meteorological Stations",0,,,,,"Status Unavailable"
B089,BSM,Installed,Operable,Anza,CA,RegA,33.59989,-116.59612,1362,PBO,"NOTA, PBO","Borehole Strainmeters",0,,,,,"Status Unavailable"
B093,BSM,Installed,Operable,Anza,CA,RegA,33.5937,-116.7638,1244,PBO,"NOTA, PBO","Borehole Strainmeters",0,,,,,"Status Unavailable"
B201,BSM,Installed,Operable,"Mount Saint Helens",WA,RegA,46.3033,-122.2648,990,PBO,"NOTA, PBO","Borehole Strainmeters, Seismometers, Tiltmeters",0,,,,,"Status Unavailable"
B202,BSM,Installed,Operable,"Mt St Helens",WA,RegA,46.2447,-122.1367,1218.6,PBO,"NOTA, PBO","Borehole Strainmeters, Seismometers, Tiltmeters",0,,,,,"Status Unavailable"
B203,BSM,Installed,Operable,"Mt St Helens",WA,RegA,46.169,-122.3337,814.4,PBO,"NOTA, PBO","Borehole Strainmeters, Seismometers, Tiltmeters",0,,,,,"Status Unavailable"
B204,BSM,Installed,Operable,"Mt St Helens",WA,RegA,46.136,-122.169,784.2,PBO,"NOTA, PBO","Borehole Strainmeters, Seismometers, Tiltmeters",0,,,,,"Status Unavailable"
B206,BSM,Installed,Inoperable,Yellowstone,WY,RegD,44.7177,-110.5117,2399.5,PBO,"NOTA, PBO","Borehole Strainmeters, Seismometers",0,,,,,"Status Unavailable"
B207,BSM,Installed,Operable,Yellowstone,WY,RegD,44.619,-110.8485,2182,PBO,"NOTA, PBO","Borehole Strainmeters, Seismometers, Tiltmeters",0,,,,,"Status Unavailable"
B208,BSM,Installed,Operable,Yellowstone,WY,RegD,44.5602,-110.4015,2405.8,PBO,"NOTA, PBO","Borehole Strainmeters, Seismometers, Tiltmeters",0,,,,,"Status Unavailable"
B900,BSM,Installed,Operable,Parkfield,CA,RegC,35.686,-120.003,219.5,PBO,"NOTA, PBO","Borehole Strainmeters, Seismometers",0,,,,,"Status Unavailable"
B901,BSM,Installed,Operable,Parkfield,CA,RegC,35.6897,-120.142,275.3,PBO,"NOTA, PBO","Borehole Strainmeters, Seismometers",0,,,,,"Status Unavailable"
B916,BSM,Installed,Operable,Ridgecrest,CA,RegA,36.1925,-117.6685,1859.9,PBO,"NOTA, PBO","Borehole Strainmeters, Seismometers",0,,,,,"Status Unavailable"
B917,BSM,Installed,Operable,Ridgecrest,CA,RegA,35.4053,-117.2588,1192,PBO,"NOTA, PBO","Borehole Strainmeters, Seismometers",0,,,,,"Status Unavailable"
B918,BSM,Installed,Operable,"China Lake",CA,RegA,35.9357,-117.6017,1042.6,PBO,"NOTA, PBO","Borehole Strainmeters, Seismometers",0,,,,,"Status Unavailable"
B921,BSM,Installed,Operable,Ridgecrest,CA,RegA,35.5865,-117.4622,694.5,PBO,"NOTA, PBO","Borehole Strainmeters, Seismometers",0,,,,,"Status Unavailable"
B926,BSM,Installed,Operable,"Lake Cowichan",BC,RegA,48.8202,-124.1312,191.6,PBO,"NOTA, PBO","Borehole Strainmeters, Seismometers, Meteorological Stations",0,,,,,"Status Unavailable"
B927,BSM,Installed,Operable,"Port Alberni",BC,RegA,49.2188,-124.8113,39,PBO,"NOTA, PBO","Borehole Strainmeters, Seismometers",0,,,,,"Status Unavailable"
B928,BSM,Installed,Operable,Bamfield,BC,RegA,48.8337,-125.1345,9.5,PBO,"NOTA, PBO","Borehole Strainmeters, Seismometers",0,,,,,"Status Unavailable"
B932,SEISMIC,Installed,Operable,Petrolia,CA,RegC,40.275,-124.2212,52,PBO,"NOTA, PBO",Seismometers,0,,,,,"Status Unavailable"
B933,BSM,Installed,Operable,"Thorn Junction",CA,RegC,40.06,-123.969,268.1,PBO,"NOTA, PBO","Borehole Strainmeters, Seismometers, Meteorological Stations",0,,,,,"Status Unavailable"
B934,BSM,Installed,Operable,Leggett,CA,RegC,39.8445,-123.6914,331,PBO,"NOTA, PBO","Borehole Strainmeters, Seismometers",0,,,,,"Status Unavailable"
B935,BSM,Installed,Operable,Dinsmore,CA,RegC,40.4787,-123.5732,696.7,PBO,"NOTA, PBO","Borehole Strainmeters, Seismometers",0,,,,,"Status Unavailable"
B941,BSM,Installed,Operable,Kapowsin,WA,RegB,46.9868,-122.219,151,PBO,"NOTA, PBO","Borehole Strainmeters, Seismometers",0,,,,,"Status Unavailable"
B943,BSM,Installed,Operable,Seattle,WA,RegB,47.8132,-122.9113,84.2,PBO,"NOTA, PBO","Borehole Strainmeters, Borehole Strainmeters, Seismometers",0,,,,,"Status Unavailable"
B944,BSM,Installed,Operable,Yellowstone,WY,RegD,44.3897,-110.5438,2364.6,PBO,"NOTA, PBO","Borehole Strainmeters, Seismometers, Tiltmeters, Meteorological Stations",0,,,,,"Status Unavailable"
B945,SEISMIC,Installed,Operable,Yellowstone,WY,RegD,44.894,-110.7441,2241.4,PBO,"NOTA, PBO","Seismometers, Tiltmeters",0,,,,,"Status Unavailable"
B946,BSM,Installed,Operable,Anza,Ca,RegA,33.5373,-116.5925,1429,PBO,"NOTA, PBO","Borehole Strainmeters, Seismometers",0,,,,,"Status Unavailable"
B948,BSM,Installed,Operable,"Parkfield ",CA,RegC,35.83372,-120.34324,428,PBO,"NOTA, PBO","Meteorological Stations",0,,,,,"Status Unavailable"
B950,BSM,Installed,Operable,Yellowstone,WY,RegD,44.7128,-110.6785,2328.4,PBO,"NOTA, PBO","Borehole Strainmeters, Seismometers, Tiltmeters",0,,,,,"Status Unavailable"
BACK,GPS,Installed,Operable,Antarctica,Antarctica,AntA,-74.430448,-102.478214,37.7,Polar,Polar,"GPS, Meteorological Stations",0,,,,,OK
BAKU,GPS,Installed,Operable,Baku,Baku,N/A,40.3721,49.8144,94,PI,PI,GPS,0,,,,,OK
BAR1,GPS,Installed,Operable,"Santa Barbara Island",CA,SW,33.480455202817275,-119.02974240511145,14.81656192080292,PBO,"NOTA, PBO",GPS,1,1327,1268,72,30,OK
BARA,GPS,Installed,Operable,Barahona,Barahona,Coco,18.208699581809604,-71.09822686302658,6.756904170558698,COCONet,"NOTA, COCONet","GPS, Meteorological Stations",1,286,262,99,100,OK
BARO,GPS,Installed,Operable,Barrow,AK,Arct,71.325047,-156.667677,11.5,Polar,Polar,GPS,0,,,,,"Status Unavailable"
BATC,GPS,Installed,Operable,"Barry Arm Landslide",Alaska,AK,61.141736,-148.17525,1038.98,Other,Other,GPS,0,,,,,"Status Unavailable"
BATG,GPS,Installed,Operable,"Ross Ice Shelf",Antarctica,AntA,-79.01098,170.72451,31.087,Polar,Polar,GPS,0,,,,,"Status Unavailable"
BBDM,GPS,Installed,Operable,Solvang,CA,SW,34.582201464454826,-119.98151968849552,204.8957139878338,PBO,"NOTA, PBO",GPS,1,1133,1145,100,100,OK
BBRY,GPS,Installed,Operable,"Big Bear City",CA,SW,34.26427977559103,-116.88424528147428,2051.0868850285297,PBO,"NOTA, PBO",GPS,1,1148,1147,0,0,OK
BCWR,GPS,Installed,Operable,"Bitter Creek Wildlife Refuge",California,SW,34.9204636516052,-119.405854509167,1332.9295294874446,USGS,,GPS,1,-1,-1,100,100,OK
BCYI,GPS,Installed,Operable,Challis,Idaho,N/A,44.31561534413799,-113.40584953125034,2173.3930139348486,Other,Other,GPS,0,,,,,"Status Unavailable"
BDLA,GPS,Installed,Operable,"Bahia de los Angeles","Baja California",Mex,28.972023,-113.547221,-31.166,TLALOCNet,"NOTA, TLALOCNet","GPS, Meteorological Stations",0,,,,,OK
BEAN,GPS,Installed,Operable,Antarctica,Antarctica,AntA,-75.9563,-69.30216,892.4,Polar,Polar,GPS,0,,,,,"Status Unavailable"
BEMT,GPS,Installed,Operable,"Twentynine Palms",CA,SW,34.00053374971018,-115.99819337217315,1373.661676910166,PBO,"NOTA, PBO",GPS,1,61,78,97,100,OK
BENN,GPS,Installed,Operable,"Horlick Mountains",Antarctica,AntA,-84.7864605277778,-116.459784611111,1417,Polar,Polar,"GPS, Meteorological Stations",0,,,,,OK
BEPK,GPS,Installed,Operable,"S. Sierra Nevada Mtns",CA,SW,35.8783885063425,-118.07409704380163,2471.1195409291213,PBO,"NOTA, PBO",GPS,1,1096,1085,100,100,OK
BERP,GPS,Installed,Operable,"Marie Byrd Land",Antarctica,AntA,-74.54594,-111.8846,312,Polar,Polar,"GPS, Meteorological Stations",0,,,,,"Status Unavailable"
BFSP,GPS,Installed,Operable,,,SW,40.784773,-113.829814,1268,PI,PI,GPS,0,,,,,OK
BGGY,GPS,Installed,Operable,-,-,Coco,17.045120668261795,-61.86116260663658,356.31558687752477,COCONet,"NOTA, COCONet","GPS, Meteorological Stations",1,606,580,100,100,OK
BGIS,GPS,Installed,Operable,"Bell Gardens",California,SW,33.96712052636999,-118.15970258987369,2.784429427604661,USGS,,GPS,1,-1,-1,100,100,OK
BIJA,GPS,Installed,Operable,Bijagual,Puntarenas,noUS,9.749975498636292,-84.57686760674642,555.6558603773436,PI,PI,"GPS, Meteorological Stations",0,,,,,OK
BILL,GPS,Installed,Operable,Temecula,CA,SW,33.578245597927456,-117.0646055672891,470.067085744816,PBO,"NOTA, PBO",GPS,1,86,81,100,100,OK
BIS0,GPS,Installed,Operable,,,noUS,4.8910029078488915,-75.33598102167622,5088.392855597937,COCONet,"NOTA Affiliated, COCONet",GPS,0,,,,,"Status Unavailable"
BKAP,GPS,Installed,Operable,Baker,CA,SW,35.28704683765231,-116.08042676146007,252.0612546748647,PBO,"NOTA, PBO",GPS,1,2,4,100,100,OK
BKMS,GPS,Installed,Operable,"Pico Rivera",CA,SW,33.962260821895406,-118.09470442336922,11.006338094077964,PBO,"NOTA, PBO",GPS,1,1147,1143,100,100,OK
BKON,GPS,Installed,Operable,,,AK,55.159497507813256,-159.57016661308043,173.34526799269472,PI,PI,GPS,0,,,,,OK
BLA1,GPS,Installed,Operable,Blacksburg,VA,East,37.21134880527446,-80.4205094981831,605.7115217612834,PBO,"NOTA, PBO",GPS,1,73,79,100,100,OK
BLAS,GPS,Installed,Operable,"NE Greenland National Park",Greenland,Arct,79.53860897143721,-22.974724964604434,484.08697627960424,Polar,Polar,GPS,0,,,,,OK
BLDF,GPS,Installed,Operable,Antarctica,Antarctica,AntA,-77.72374,162.25795,100,Polar,Polar,GPS,0,,,,,"Status Unavailable"
BLW2,GPS,Installed,Operable,Boulder,WY,East,42.76712635488845,-109.55780375976286,2215.605375584891,PBO,"NOTA, PBO",GPS,1,283,309,100,100,OK
BLYN,GPS,Installed,Inoperable,Blyn,WA,NW,48.01605711051478,-122.92754126045065,613.2370717809702,Other,Other,GPS,0,,,,,"Status Unavailable"
BLYT,GPS,Installed,Operable,Blythe,California,SW,33.61041418293996,-114.71485308021983,85.94321291903415,USGS,,GPS,1,-1,-1,99,100,OK
BMHL,GPS,Installed,Operable,"Twentynine Palms",CA,SW,34.251444633225,-116.05298028141436,722.6630946056038,PBO,"NOTA, PBO",GPS,1,27,22,100,100,OK
BNTL,GPS,Installed,Operable,Gojuakati,,noUS,22.498134,89.230086,-48.4,PI,PI,GPS,0,,,,,"Status Unavailable"
BNZA,GPS,Installed,Operable,,,noUS,-1.8977900880095087,29.297291298389098,1709.0018906164798,PI,PI,GPS,1,1046,1076,92,100,"Status Unavailable"
BOAR,GPS,Installed,Operable,Antarctica,Antarctica,AntA,-75.043891,-100.592665,72.8,Polar,Polar,GPS,0,,,,,"Status Unavailable"
BOB1,GPS,Installed,Operable,"Thwaites Glacier",Antarctica,AntA,-75.028809,-105.58454,53,Polar,Polar,"GPS, Meteorological Stations",0,,,,,"Status Unavailable"
BOM2,GPS,Installed,Operable,"Ross Island",,AntA,-77.5089,167.4402,1966,Polar,Polar,GPS,0,,,,,OK
BOMG,GPS,Installed,Operable,"Bombay Beach",California,SW,33.36462875141167,-115.72970746486709,-84.21464491233603,USGS,,GPS,1,-1,-1,99,100,OK
BOMR,GPS,Installed,Operable,Honomu,Hawaii,N/A,19.870859,-155.112148,101.5,PI,PI,GPS,1,-1,-1,99,100,OK
BON2,GPS,Installed,Operable,Bongo,Guanacaste,noUS,9.764531026588136,-85.20250818123463,28.322821284013322,PI,PI,GPS,0,,,,,OK
BOZ1,BSM,Installed,Operable,Armutlu,,N/A,40.534524,28.782045,70,GONAF,"NOTA, GONAF","Borehole Strainmeters, Seismometers",0,,,,,"Status Unavailable"
BRAN,GPS,Installed,Operable,"Brand Basin",California,SW,34.18489686400532,-118.27705591010783,246.2674858410472,USGS,,GPS,1,-1,-1,99,100,OK
BRN2,GPS,Installed,Inoperable,Biratnagar,,noUS,26.51964,87.27206,79,Other,Other,"GPS, Meteorological Stations",0,,,,,"Status Unavailable"
BRSG,GPS,Installed,Operable,"St. George's","St. George's Island",noUS,32.37040277777778,-64.69635833333334,-10,Other,Other,GPS,0,,,,,"Status Unavailable"
BRYN,GPS,Installed,Operable,,,N/A,41.207583,-112.423837,1268.3827,PI,PI,GPS,0,,,,,OK
BSA1,GPS,Installed,Operable,Antarctica,Antarctica,AntA,-67.81604,-67.29071,127.6,Other,Other,GPS,0,,,,,"Status Unavailable"
BSRY,GPS,Installed,Operable,Barstow,CA,SW,34.91861275664416,-117.01199605900473,613.5174824593279,PBO,"NOTA, PBO",GPS,1,23,25,100,100,OK
BTDM,GPS,Installed,Operable,"La Canada",CA,SW,34.29280804969638,-118.1882317918112,678.2738223240148,PBO,"NOTA, PBO",GPS,0,,,,,"Status Unavailable"
BUEG,GPS,Installed,Operable,Buellton,California,SW,34.61284875,-120.19640775,74.7945,USGS,,GPS,1,-1,-1,99,100,OK
BUMS,GPS,Installed,Operable,,,AntA,-85.961,174.498,2648.9,Polar,Polar,"GPS, Meteorological Stations",0,,,,,"Status Unavailable"
BURI,GPS,Installed,Operable,"Cook Mountains",Antarctica,AntA,-79.14744459,155.89416908,2007,Polar,Polar,"GPS, Meteorological Stations",0,,,,,OK
BURN,GPS,Installed,Operable,"Burns Junction",OR,NW,42.779500497712824,-117.84353205320915,1180.9094170606727,PBO,"NOTA, PBO","GPS, Meteorological Stations",1,206,280,100,100,OK
BUY1,BSM,Installed,Operable,Adalar,,noUS,40.839997,29.123121,47,GONAF,"NOTA, GONAF","Borehole Strainmeters, Seismometers, Meteorological Stations",0,,,,,"Status Unavailable"
BVPP,GPS,Installed,Operable,Taft,CA,SW,35.157277229274676,-119.34751133591706,123.06241832382106,PBO,"NOTA, PBO",GPS,1,27,322,97,93,OK
BYAH,GPS,Installed,Operable,,,noUS,-1.6627040866828915,29.264612826208726,1596.2368754318277,PI,PI,GPS,1,-1,1054,97,99,OK
BYSP,GPS,Installed,Operable,Bayamon,,noUS,18.407837606701875,-66.16119848717551,49.242566658885245,COCONetRT,"NOTA Affiliated, COCONet","GPS, Meteorological Stations",1,-1,-1,0,0,"Status Unavailable"
CABA,GPS,Installed,Operable,Caballito,Guanacaste,noUS,10.237873580817128,-85.34353395790401,26.95874630542001,PI,PI,GPS,0,,,,,OK
CABL,GPS,Installed,Operable,"Port Orford",OR,NW,42.83609940945377,-124.56334661557904,37.86946170650166,PBO,"NOTA, PBO",GPS,1,49,48,100,100,OK
CACT,GPS,Installed,Operable,Coachella,California,SW,33.6551353839264,-115.98995213632938,518.4804966499373,USGS,,GPS,1,-1,-1,100,100,OK
CALV,GPS,Installed,Operable,n/a,n/a,noUS,12.572445437281633,-86.84560608665237,287.4302061323941,Other,Other,GPS,0,,,,,"Status Unavailable"
CAMO,GPS,Installed,Operable,Camigliatello,Calabria,N/A,39.34031667,16.44923333,1269,Other,Other,GPS,0,,,,,"Status Unavailable"
CAND,GPS,Installed,Operable,Parkfield,CA,N/A,35.939353326708776,-120.43369979478089,568.4275410930162,PBO,"NOTA Affiliated, PBO",GPS,0,,,,,"Status Unavailable"
CANZ,GPS,Installed,Operable,"Ojo de Agua","Veraguas Province",noUS,8.199626,-81.522229,372.0308,Other,Other,GPS,0,,,,,"Status Unavailable"
CAPF,GPS,Installed,Operable,"Graham Land",Antarctica,AntA,-66.0121,-60.5584,100.3,Polar,Polar,"GPS, Meteorological Stations",0,,,,,"Status Unavailable"
CAPI,GPS,Installed,Operable,Yopal,,Coco,5.351424045454001,-72.42775766564085,935.49992450047,COCONet,"NOTA Affiliated, COCONet",GPS,0,,,,,"Status Unavailable"
CARH,GPS,Installed,Operable,Parkfield,CA,N/A,35.88838682458482,-120.43082634101702,480.28522738718243,PBO,"NOTA Affiliated, PBO",GPS,0,,,,,"Status Unavailable"
CASE,GPS,Installed,Operable,"Camp Pendleton",CA,SW,33.45535208807513,-117.40398659556942,776.519390896595,"SoCal Edison","NOTA, SoCal Edison","GPS, Meteorological Stations",1,444,461,74,98,OK
CAST,GPS,Installed,Operable,"Castle Dale",UT,East,39.19102134781207,-110.6773155545597,2245.0544900687228,PBO,"NOTA, PBO","GPS, Meteorological Stations",1,89,85,100,100,OK
CAT2,GPS,Installed,Operable,Avalon,CA,SW,33.31161987506102,-118.33382203704792,477.25298259433254,PBO,"NOTA, PBO",GPS,1,-1,-1,0,0,OK
CAT3,GPS,Installed,Operable,Avalon,CA,SW,33.445764655911155,-118.48301168054499,5.153908267591093,PBO,"NOTA, PBO",GPS,1,235,297,100,100,OK
CBHS,GPS,Installed,Operable,Calabasas,CA,SW,34.138564074008414,-118.62981119883295,284.63807174544286,PBO,"NOTA, PBO",GPS,1,27,82,100,100,OK
CBIA,GPS,Installed,Operable,,,AK,61.20429,-146.97456,711.101,PI,PI,GPS,0,,,,,OK
CBMD,GPS,Installed,Operable,N/A,"Cayman Brac",Coco,19.737976168489432,-79.7582587944197,18.76137057763464,COCONet,"NOTA Affiliated, COCONet","GPS, Meteorological Stations",0,,,,,"Status Unavailable"
CCCC,GPS,Installed,Operable,Ridgecrest,CA,SW,35.56531483686408,-117.67117637790912,813.988607556708,PBO,"NOTA, PBO",GPS,1,-1,-1,100,100,OK
CDMT,GPS,Installed,Operable,Ludlow,CA,SW,34.82946690387558,-116.33593377937262,936.6033507416515,PBO,"NOTA, PBO",GPS,1,-1,-1,100,100,OK
CDVV,GPS,Installed,Operable,Socorro,"New Mexico",N/A,34.254153749366324,-106.96977455199445,1552.0276976956327,Other,Other,GPS,0,,,,,"Status Unavailable"
CEDA,GPS,Installed,Operable,Delle,UT,East,40.68069460065598,-112.86048403468314,1472.527410857012,PBO,"NOTA, PBO",GPS,1,54,57,69,36,OK
CFHS,GPS,Installed,Operable,Houston,Texas,N/A,29.919234,-95.631934,15.7,PI,PI,GPS,0,,,,,OK
CFJV,GPS,Installed,Operable,Houston,Texas,N/A,29.881648,-95.55584,8.7,PI,PI,GPS,0,,,,,OK
CGDM,GPS,Installed,Operable,"San Gabriel Mountains",CA,SW,34.24399467599928,-117.9649509813635,704.7195912779644,PBO,"NOTA, PBO",GPS,1,606,572,100,100,"Status Unavailable"
CGNN,GPS,Installed,Operable,Valdez,Alaska,AK,61.121588,-147.048084,271.2,Other,Other,GPS,0,,,,,OK
CGSJ,GPS,Installed,Operable,"Departamento Calingasta","San Juan",N/A,-31.3743884,-69.416241,1461.4,Other,Other,GPS,0,,,,,"Status Unavailable"
CGUI,GPS,Installed,Operable,,,noUS,12.976306062077944,-87.55874373327606,746.118196133398,Other,Other,GPS,1,-1,-1,0,0,"Status Unavailable"
CHIL,GPS,Installed,Operable,"San Gabriel Mountains",California,SW,34.333424,-118.026003,1567.5,USGS,,GPS,1,-1,-1,100,100,"Status Unavailable"
CHIS,GPS,Installed,Operable,Chisec,,noUS,15.812254901602868,-90.2913551325895,241.9961978424711,COCONet,"NOTA Affiliated, COCONet","GPS, Meteorological Stations",0,,,,,"Status Unavailable"
CHLL,GPS,Installed,Operable,Greely,CO,N/A,40.447,-104.638,1408.87,PI,PI,"GPS, Meteorological Stations",0,,,,,OK
CHMS,GPS,Installed,Operable,Lancaster,CA,SW,34.64046351757944,-117.82770526970339,760.3439595633092,PBO,"NOTA, PBO",GPS,1,1156,1156,100,100,OK
CHNR,GPS,Installed,Operable,Chunarughat,,noUS,24.18975,91.51504,-24.356,PI,PI,GPS,0,,,,,"Status Unavailable"
CHUM,GPS,Installed,Operable,Chumysh,Kurdai,N/A,42.998501179,74.751099499,716.3321,Other,Other,GPS,0,,,,,"Status Unavailable"
CHWN,GPS,Installed,Inoperable,Bharatpur,,noUS,27.668056,84.385278,137,Other,Other,GPS,0,,,,,"Status Unavailable"
CHWT,GPS,Installed,Operable,"Chowiet Island",Alaska,AK,56.047899849167536,-156.6918353704496,147.90672649609942,PI,PI,GPS,0,,,,,OK
CHZZ,GPS,Installed,Operable,Tillamook,OR,NW,45.48651524902867,-123.97812407377742,50.76119052467657,PBO,"NOTA, PBO",GPS,1,357,357,98,100,OK
CIRX,GPS,Installed,Operable,"Santa Monica Mountains National Recreation Area",CA,SW,34.109556503151516,-118.93730168927803,488.2323459961457,PBO,"NOTA, PBO",GPS,1,255,162,72,28,"Status Unavailable"
CIT1,GPS,Installed,Operable,Caltech,California,SW,34.13671098825706,-118.127290869484,215.3820800648742,USGS,,GPS,1,-1,-1,100,100,OK
CJMG,GPS,Installed,Operable,Devore,California,SW,34.27119599774905,-117.424465411179,1584.3999336456864,USGS,,GPS,1,-1,-1,0,0,"Status Unavailable"
CJMS,GPS,Installed,Operable,"W. Cajon Valley",California,SW,34.31380079140009,-117.47938731501267,933.3942074904533,USGS,,GPS,1,-1,-1,100,100,OK
CJTR,GPS,Installed,Operable,"Little Rock",Arkansas,N/A,34.821694940578126,-92.27303902282193,126.0010980075202,Other,Other,GPS,0,,,,,"Status Unavailable"
CJVG,GPS,Installed,Operable,"Casa Juvad",California,SW,34.53032228201879,-118.14423318378027,1304.883017506887,USGS,,GPS,0,,,,,OK
CLAR,GPS,Installed,Operable,Claremont,California,SW,34.10993021893462,-117.70881500741706,373.63541,USGS,,GPS,1,-1,-1,0,0,OK
CLBD,GPS,Installed,Operable,Carlsbad,CA,SW,33.13538799321272,-117.31098047955237,20.617444526180755,"SoCal Edison","NOTA, SoCal Edison",GPS,1,55,55,100,100,OK
CLGO,GPS,Installed,Operable,Fairbanks,AK,AK,64.87377152607091,-147.8604890949122,196.12562281087997,PBO,"NOTA, PBO",GPS,1,2,1,100,100,OK
CLGX,GPS,Installed,Operable,Fairbanks,AK,AK,64.873774,-147.860487,196.1069,Other,Other,GPS,1,169,292,0,0,"Status Unavailable"
CLRK,GPS,Installed,Operable,"Ford Range",Antarctica,AntA,-77.34008,-141.8738169,1000.853,Polar,Polar,"GPS, Meteorological Stations",0,,,,,OK
CMFB,GPS,Installed,Operable,Richmond,Texas,N/A,29.681363,-95.728794,8.2,PI,PI,GPS,0,,,,,OK
CMP9,GPS,Installed,Operable,"Fire Camp 9",California,SW,34.35318207192579,-118.41143003371374,1138.0349003476563,USGS,,GPS,1,-1,-1,100,100,OK
CN00,GPS,Installed,Operable,Codrington,,Coco,17.668525125089488,-61.78557821436971,-21.915699783188966,COCONet,"NOTA, COCONet","GPS, Meteorological Stations",1,500,478,100,100,"Status Unavailable"
CN01,GPS,Installed,Operable,Bethesda,,Coco,17.048419814249772,-61.765367287316394,16.66143315024826,COCONet,"NOTA, COCONet","GPS, Meteorological Stations",1,-1,-1,99,100,OK
CN03,GPS,Installed,Operable,"North Sound","Virgin Gorda",Coco,18.4904628351373,-64.40252076568783,288.3816646944447,COCONet,"NOTA, COCONet","GPS, Meteorological Stations",1,-1,-1,0,0,OK
CN04,GPS,Installed,Operable,COCO,,Coco,14.023548457642509,-60.97389793826363,24.445759418404776,COCONet,"NOTA, COCONet","GPS, Meteorological Stations",1,-1,-1,98,100,OK
CN05,GPS,Installed,Operable,"Punta Cana","La Altagracia Province",Coco,18.563902268383565,-68.35939250769235,-33.24843702250406,COCONet,"NOTA, COCONet","GPS, Meteorological Stations",1,357,292,99,100,OK
CN06,GPS,Installed,Operable,,,Coco,18.789825408905674,-70.65610996500476,2311.746496753847,COCONet,"NOTA, COCONet","GPS, Meteorological Stations",1,276,233,99,100,OK
CN07,GPS,Installed,Operable,"Puerto Plata",,Coco,19.757631510536083,-70.56585189888887,-32.2378034578139,COCONet,"NOTA, COCONet","GPS, Meteorological Stations",1,-1,-1,100,100,OK
CN09,GPS,Installed,Operable,Cap-Haitian,Nord,Coco,19.68774647878881,-72.13981858282222,-15.006045761944398,COCONet,"NOTA, COCONet","GPS, Meteorological Stations",1,-1,-1,98,100,OK
CN10,GPS,Installed,Operable,none,none,Coco,17.415191007205323,-75.97055222551563,-16.311929877552465,COCONet,"NOTA, COCONet","GPS, Meteorological Stations",0,,,,,"Status Unavailable"
CN11,GPS,Installed,Operable,none,none,Coco,17.02118035182811,-77.78411715352212,-10.672589477157516,COCONet,"NOTA, COCONet","GPS, Meteorological Stations",0,,,,,"Status Unavailable"
CN12,GPS,Installed,Operable,Kingston,none,Coco,18.004482257125964,-76.74905121715761,169.95189639033183,COCONet,"NOTA, COCONet","GPS, Meteorological Stations",1,216,192,99,100,OK
CN13,GPS,Installed,Operable,"San Salvador",,Coco,24.065185866607475,-74.53378462249543,-34.56582150248913,COCONet,"NOTA, COCONet","GPS, Meteorological Stations",1,-1,-1,99,100,OK
CN14,GPS,Installed,Operable,"Mathew Town","Great Inagua",Coco,20.97532917289774,-73.677951313927,-34.208974243705335,COCONet,"NOTA, COCONet","GPS, Meteorological Stations",1,-1,-1,100,100,OK
CN15,GPS,Installed,Operable,Freeport,"Grand Bahama Island",Coco,26.55665606641124,-78.69308471305618,-27.537120641983318,COCONet,"NOTA, COCONet","GPS, Meteorological Stations",1,-1,-1,100,100,OK
CN16,GPS,Installed,Operable,Camaguey,,Coco,21.422296493291825,-77.84976588499637,106.75553386668658,COCONet,"NOTA, COCONet","GPS, Meteorological Stations",0,,,,,"Status Unavailable"
CN18,GPS,Installed,Operable,"Swan Islan","Bay Islands",Coco,17.407672936096517,-83.94432786345664,1.4567211194893526,COCONet,"NOTA, COCONet","GPS, Meteorological Stations",0,,,,,"Status Unavailable"
CN19,GPS,Installed,Operable,Noord,Aruba,Coco,12.611849225942443,-70.04850038123868,-0.34202843156603396,COCONet,"NOTA, COCONet","GPS, Meteorological Stations",1,386,363,95,97,OK
CN20,GPS,Installed,Operable,"Bocas Del Toro","Bocas Del Toro",Coco,9.351676591235071,-82.2562658905727,13.176410991973603,COCONet,"NOTA, COCONet","GPS, Meteorological Stations",1,269,269,99,100,OK
CN21,GPS,Installed,Operable,"San Lorenzo ",,Coco,13.402740516715244,-87.42709517821118,15.816235472345692,COCONet,"NOTA, COCONet","GPS, Meteorological Stations",0,,,,,OK
CN23,GPS,Installed,Operable,Belmopan,,Coco,17.26060727032205,-88.7787580588552,55.33691200709016,COCONet,"NOTA, COCONet","GPS, Meteorological Stations",1,0,1,99,100,OK
CN24,GPS,Installed,Operable,"Felipe Carrillo Puerto","Quintana Roo",Mex,19.575562172701876,-88.05390533703581,7.943311963863195,COCONet,"NOTA, COCONet","GPS, Meteorological Stations",1,302,394,100,100,OK
CN25,GPS,Installed,Operable,"Comitan De Dominguez",Chiapas,Mex,16.232043321504612,-92.13524148620166,1649.2822113177,COCONet,"NOTA, COCONet","GPS, Meteorological Stations",0,,,,,OK
CN27,GPS,Installed,Operable,Cabrera,"Maria Trinidada Sanchez",Coco,19.66711832255775,-69.93980985793678,-21.112123371380438,COCONet,"NOTA, COCONet","GPS, Meteorological Stations",1,694,642,99,92,"Status Unavailable"
CN29,GPS,Installed,Operable,"Puerto Cabezas",,Coco,14.048797085925598,-83.37463724003032,30.39821975928082,COCONet,"NOTA, COCONet","GPS, Meteorological Stations",1,-1,-1,99,98,OK
CN30,GPS,Installed,Operable,Freeport,,Coco,11.993551424508624,-83.77204759876707,29.91215,COCONet,"NOTA, COCONet","GPS, Meteorological Stations",0,,,,,"Status Unavailable"
CN35,GPS,Installed,Operable,"Old Town",,Coco,13.375495999952303,-81.36291980705795,47.88513291478811,COCONet,"NOTA, COCONet","GPS, Meteorological Stations",1,-1,-1,0,0,OK
CN36,GPS,Installed,Operable,Monteria,,Coco,8.819620670660749,-75.82113562832899,15.326192000062965,COCONet,"NOTA, COCONet","GPS, Meteorological Stations",0,,,,,"Status Unavailable"
CN37,GPS,Installed,Operable,Galerazamba,,Coco,10.792578152642054,-75.26317452995397,1.47910687650302,COCONet,"NOTA, COCONet","GPS, Meteorological Stations",1,227,345,99,100,OK
CN38,GPS,Installed,Operable,Cerrejon,,Coco,12.221822443177173,-71.98802537344932,10.474013374239638,COCONet,"NOTA, COCONet","GPS, Meteorological Stations",1,248,302,99,100,"Status Unavailable"
CN39,GPS,Installed,Operable,"Quebrada Arriba",,Coco,10.206480472241486,-70.5236555700277,542.2773937632401,COCONet,"NOTA, COCONet","GPS, Meteorological Stations",0,,,,,"Status Unavailable"
CN40,GPS,Installed,Operable,Williamsted,,Coco,12.180044680717005,-68.95801348069091,33.3475549698744,COCONet,"NOTA, COCONet","GPS, Meteorological Stations",1,270,262,99,100,OK
CN41,GPS,Installed,Operable,"Hato Pintero",Cojedes,Coco,8.943455719366405,-68.04149594842795,81.26377919118652,COCONet,"NOTA, COCONet","GPS, Meteorological Stations",0,,,,,"Status Unavailable"
CN42,GPS,Installed,Operable,"Los Roques",,Coco,11.952650536732822,-66.68226351571491,-3.653695753142466,COCONet,"NOTA, COCONet","GPS, Meteorological Stations",0,,,,,"Status Unavailable"
CN43,GPS,Installed,Operable,,,Coco,11.8187915,-64.5980617,2,COCONet,"NOTA Affiliated, COCONet","GPS, Meteorological Stations",0,,,,,"Status Unavailable"
CN44,GPS,Installed,Operable,"Margarita Island",,Coco,11.000457446579784,-63.91029614875515,835.9544778285144,COCONet,"NOTA, COCONet","GPS, Meteorological Stations",0,,,,,"Status Unavailable"
CN46,GPS,Installed,Operable,"Mount Pleasant",n/a,Coco,12.486834404854164,-61.42698815456339,-22.585430000000002,COCONet,"NOTA, COCONet","GPS, Meteorological Stations",0,,,,,"Status Unavailable"
CN47,GPS,Installed,Operable,"Moule A Chique",,Coco,13.71078758696863,-60.940494397150246,177.1567342766976,COCONet,"NOTA, COCONet","GPS, Meteorological Stations",1,-1,-1,99,100,OK
CN48,GPS,Installed,Operable,"Grand Savanne",,Coco,15.438812740760168,-61.421641656529005,279.88058984845645,COCONet,"NOTA, COCONet","GPS, Meteorological Stations",1,-1,-1,100,100,"Status Unavailable"
CN49,GPS,Installed,Operable,,,Coco,15.667187989561691,-63.61826052552141,-31.52327188912815,COCONet,"NOTA Affiliated, COCONet","GPS, Meteorological Stations",0,,,,,"Status Unavailable"
CN53,GPS,Installed,Operable,Providenciales,,Coco,21.78265190365644,-72.25386707056464,-15.646586788081981,COCONet,"NOTA, COCONet","GPS, Meteorological Stations",0,,,,,OK
CN55,GPS,Installed,Operable,Aguadulce,,Coco,8.243269765449591,-80.53933857006825,44.65740306650314,COCONet,"NOTA, COCONet","GPS, Meteorological Stations",1,546,582,99,100,OK
CN56,GPS,Installed,Operable,Meteti,,Coco,8.549077759940932,-78.0148290861236,76.70999635044772,COCONet,"NOTA, COCONet","GPS, Meteorological Stations",0,,,,,OK
CN57,GPS,Installed,Operable,Toco,,Coco,10.837084076271749,-60.93831036488962,-5.56651882954773,COCONet,"NOTA, COCONet","GPS, Meteorological Stations",1,-1,299,99,100,OK
CN58,GPS,Installed,Operable,,,Coco,18.586565170160366,-63.426520885100445,-35.17290783495635,COCONet,"NOTA, COCONet","GPS, Meteorological Stations",0,,,,,OK
CN59,GPS,Installed,Operable,"The Valley",,Coco,18.20662592,-63.0538521,11.138,COCONet,"NOTA, COCONet","GPS, Meteorological Stations",1,-1,-1,99,100,OK
CN60,GPS,Installed,Operable,"Contadora Island",,Coco,8.62722,-79.0341,30,COCONet,"NOTA, COCONet","GPS, Meteorological Stations, Meteorological Stations",1,-1,-1,99,100,OK
CN62,GPS,Installed,Operable,"St John's",Montserrat,Coco,16.790254,-62.193977,146,COCONet,"NOTA, COCONet","GPS, Meteorological Stations",0,,,,,OK
CNC0,GPS,Installed,Operable,Cancun,"Quintana Roo",Coco,21.174653277455413,-86.82090113577328,-0.20604002580141978,COCONet,"NOTA Affiliated, COCONet","GPS, Meteorological Stations",0,,,,,"Status Unavailable"
CNG2,GPS,Installed,Operable,Leon,Leon,N/A,12.501176538589934,-86.69933763785912,513.5458325390183,PI,PI,GPS,1,-1,-1,100,100,"Status Unavailable"
CNPP,GPS,Installed,Operable,Corona,CA,SW,33.857634646358775,-117.60892482531685,300.3194737251534,PBO,"NOTA, PBO","GPS, Meteorological Stations",1,1134,1130,100,100,OK
COAG,GPS,Installed,Operable,"Coachella GPS",California,SW,32.86346389458828,-115.12334799264448,3.639844698011493,USGS,,GPS,1,-1,-1,100,100,OK
COML,GPS,Installed,Operable,,,noUS,23.419697,91.136299,20,PI,PI,GPS,0,,,,,"Status Unavailable"
CON2,GPS,Installed,Operable,"Mount Erebus",Antarctica,AntA,-77.53459,167.08547,3403,Polar,Polar,GPS,0,,,,,OK
COON,GPS,Installed,Operable,Magna,UT,East,40.652590514386596,-112.12101378539393,1610.021261082262,PBO,"NOTA, PBO",GPS,1,59,132,100,100,OK
COPR,GPS,Installed,Operable,"Isla Vista",CA,SW,34.41491053495335,-119.87953167703358,-22.81848823027154,PBO,"NOTA, PBO",GPS,1,23,21,99,99,OK
CORV,GPS,Installed,Operable,Corvallis,OR,NW,44.585535066641405,-123.30460579466222,105.62632195518563,PBO,"NOTA, PBO",GPS,1,34,95,100,100,OK
CORX,GPS,Installed,Operable,"Isla Coronado","Baja California",Mex,32.4153754345282,-117.2481883490361,74.27202843909869,Other,Other,GPS,0,,,,,"Status Unavailable"
COSO,GPS,Installed,Operable,"Coso Junction",California,SW,35.98234356406061,-117.80889334119635,1455.1351292254944,USGS,,GPS,1,-1,-1,69,76,"Status Unavailable"
COTD,GPS,Installed,Operable,"Palm Desert",California,SW,33.73248800647737,-116.38689302050963,27.678680431772076,USGS,,GPS,1,-1,-1,0,0,"Status Unavailable"
COTE,GPS,Installed,Operable,"Kukri Hills",Antarctica,AntA,-77.8059,161.9978,1878.1,Polar,Polar,GPS,0,,,,,OK
COTM,GPS,Installed,Operable,"Texas City",Texas,N/A,29.39383973,-94.9981992,-18.5482,PI,PI,GPS,0,,,,,OK
CPBN,GPS,Installed,Operable,Boron,CA,SW,35.071735661173,-117.57302611739328,835.865322170593,PBO,"NOTA, PBO",GPS,1,1113,1107,100,100,OK
CPXX,GPS,Installed,Operable,LaGrande,WA,NW,46.84008462589229,-122.25652032391193,533.6232994545485,PBO,"NOTA, PBO",GPS,1,223,324,99,100,OK
CRAR,GPS,Installed,Operable,"McMurdo Station",Antarctica,AntA,-77.848,166.6682,-19.16,Polar,Polar,GPS,0,,,,,"Status Unavailable"
CRBT,GPS,Installed,Operable,"San Miguel",CA,SW,35.791614520332146,-120.75076017563657,205.47071791249843,PBO,"NOTA, PBO",GPS,1,61,59,100,100,OK
CRDI,GPS,Installed,Operable,"Pensacola Mountains",Antarctica,AntA,-82.8615,-53.1991,943.3,Polar,Polar,"GPS, Meteorological Stations",0,,,,,OK
CRFP,GPS,Installed,Operable,Yucaipa,California,SW,34.03905352450738,-117.09968683495097,688.8391803206779,USGS,,GPS,1,-1,-1,100,100,OK
CRGG,GPS,Installed,Operable,Simmler,California,SW,35.242092150868466,-119.72482561515747,1173.0971098862278,USGS,,GPS,1,-1,-1,100,100,OK
CRLR,GPS,Installed,Operable,"La Romana",,Coco,18.41668677326942,-68.93690490683736,-5.551952324277974,COCONet,"NOTA Affiliated, COCONet",GPS,1,184,181,99,100,OK
CRRS,GPS,Installed,Operable,Westmorland,CA,SW,33.06980883457337,-115.73504495922163,-81.87189699517232,PBO,"NOTA, PBO",GPS,1,-1,-1,100,100,OK
CRSE,GPS,Installed,Operable,"El Seibo",,Coco,18.76807806445854,-69.0437092384579,86.60576340344322,COCONet,"NOTA Affiliated, COCONet",GPS,0,,,,,OK
CRU1,GPS,Installed,Operable,"Santa Cruz Island",CA,SW,34.02926328612454,-119.78481752358542,702.2009875098952,PBO,"NOTA, PBO",GPS,1,1478,1157,99,100,OK
CSCI,GPS,Installed,Operable,Camarillo,CA,SW,34.16840595612753,-119.03898666995431,70.87733642328938,PBO,"NOTA, PBO",GPS,1,104,108,100,100,OK
CSDH,GPS,Installed,Operable,Carson,California,SW,33.86148034766843,-118.2567231873596,-9.126029844528674,USGS,,GPS,1,-1,-1,99,100,OK
CSHR,GPS,Installed,Operable,Longmire,WA,N/A,46.87072708571972,-121.73243170157275,2882.3426592788305,Other,Other,GPS,0,,,,,"Status Unavailable"
CSN1,GPS,Installed,Operable,"CSU Northridge",California,SW,34.2535526573189,-118.52381754370305,261.45977908226956,USGS,,GPS,1,-1,-1,100,100,OK
CSPS,GPS,Installed,Operable,"Departamento Calingasta","San Juan",N/A,-31.2084545,-69.6365451,2419.1,Other,Other,GPS,0,,,,,"Status Unavailable"
CSST,GPS,Installed,Operable,"Casitas Springs",CA,SW,34.4080927998348,-119.37125576657746,162.5071621044781,PBO,"NOTA, PBO",GPS,1,1129,1140,99,100,OK
CSTE,GPS,Installed,Operable,Houston,Texas,N/A,29.795641,-95.51074,-2.3,PI,PI,GPS,0,,,,,OK
CTDM,GPS,Installed,Operable,Castaic,CA,SW,34.516551392025626,-118.61321577233406,406.11040282856374,PBO,"NOTA, PBO",GPS,1,62,77,100,100,OK
CTMS,GPS,Installed,Operable,"Yucca Valley",CA,SW,34.12410113351737,-116.37042865539752,966.5099418021044,PBO,"NOTA, PBO",GPS,1,1162,1166,100,100,OK
CUC1,GPS,Installed,Operable,Cucuta,,Coco,7.932276007799721,-72.51281337451633,321.15258952352445,COCONet,"NOTA Affiliated, COCONet",GPS,0,,,,,"Status Unavailable"
CUHS,GPS,Installed,Operable,"New Cuyama",California,SW,34.9426467,-119.67394964,635.236,USGS,,GPS,1,-1,-1,100,100,OK
CUPR,GPS,Installed,Operable,Dewey,"Culebra Island",noUS,18.307440418810295,-65.2825146650207,-30.393571099889545,COCONet,"NOTA Affiliated, COCONet","GPS, Meteorological Stations",1,-1,-1,90,95,"Status Unavailable"
CVHS,GPS,Installed,Operable,"Covina H.S.",California,SW,34.082013379267146,-117.90172283676654,119.08557280289925,USGS,,GPS,1,-1,-1,100,100,OK
CVMS,GPS,Installed,Operable,Covington,Tennessee,N/A,35.541421477967575,-89.64351251628983,72.94945626568827,Other,Other,GPS,0,,,,,"Status Unavailable"
DAEX,GPS,Installed,Operable,Mexicali,"Baja California",Mex,32.224502088809004,-115.41921239750158,399.32678265491165,PI,PI,GPS,0,,,,,OK
DAM2,GPS,Installed,Operable,Pacoima,California,SW,34.334837,-118.396868,583.4,USGS,,GPS,1,-1,-1,89,100,OK
DAM3,GPS,Installed,Operable,Pacoima,California,SW,34.333992,-118.397471,580,USGS,,GPS,0,,,,,OK
DANE,GPS,Installed,Operable,"NE Greenland National Park",Greenland,Arct,74.3119475326801,-20.199829463670312,177.09061614214298,Polar,Polar,GPS,0,,,,,OK
DCPS,GPS,Installed,Operable,Sreemangal,,noUS,24.302785,91.778251,-14,PI,PI,GPS,0,,,,,"Status Unavailable"
DDSN,GPS,Installed,Operable,Roseburg,OR,NW,43.118790694088645,-123.24424360869605,953.1106671775145,PBO,"NOTA, PBO",GPS,1,104,101,100,100,OK
DEN1,GPS,Installed,Operable,Pearland,TX,N/A,29.5104,-95.258,-17.2,Other,Other,GPS,0,,,,,"Status Unavailable"
DEN2,GPS,Installed,Operable,Pearland,TX,N/A,29.5049,-95.254,-18.1,Other,Other,GPS,0,,,,,"Status Unavailable"
DEN3,GPS,Installed,Operable,Pearland,TX,N/A,29.493739,-95.254664,-19.5,Other,Other,GPS,0,,,,,"Status Unavailable"
DEN4,GPS,Installed,Operable,Pearland,TX,N/A,29.5002,-95.2297,-20.2,Other,Other,GPS,0,,,,,"Status Unavailable"
DGJG,GPS,Installed,Operable,"NE Greenland National Park",Greenland,Arct,71.78653423491588,-29.85020819709524,1494.1597646788343,Polar,Polar,GPS,0,,,,,OK
DHL1,LSM,Installed,Inoperable,,CA,SW,33.3923,-115.7873,-25,PBO,"NOTA Affiliated, PBO","Laser Strainmeters",0,,,,,"Status Unavailable"
DIXN,GPS,Installed,Operable,Dixon,CA,SW,38.46871533289127,-121.8286449930689,-9.160246539944389,PBO-extended,"NOTA, PBO",GPS,1,58,59,99,100,OK
DKSG,GPS,Installed,Operable,Qaasuitsup,Greenland,Arct,76.35162128111172,-61.67767579006437,609.8032722028884,Polar,Polar,GPS,0,,,,,OK
DLUZ,GPS,Installed,Operable,"De Luz",CA,SW,33.430589219424014,-117.3072246036848,212.7420554129203,"SoCal Edison","NOTA, SoCal Edison",GPS,1,45,49,99,100,OK
DMFB,GPS,Installed,Operable,"Sugar Land",Texas,N/A,29.622653,-95.583741,3.1,PI,PI,GPS,0,,,,,OK
DNTH,GPS,Installed,Operable,McMurdo,,AntA,-78.07859,163.98413,912.7,Polar,Polar,GPS,0,,,,,"Status Unavailable"
DOMI,GPS,Installed,Operable,Roseau,,Coco,15.306214558118658,-61.38908616478625,-21.217138417513972,COCONet,"NOTA Affiliated, COCONet",GPS,0,,,,,"Status Unavailable"
DSSC,GPS,Installed,Operable,Idyllwild,CA,SW,33.733332745020235,-116.71209388922688,1660.8994602056437,PBO,"NOTA, PBO",GPS,1,248,246,100,100,OK
DUPT,GPS,Installed,Operable,"Graham Land",Antarctica,AntA,-64.8049444,-62.8169056,40,Polar,Polar,"GPS, Meteorological Stations",0,,,,,"Status Unavailable"
DVPB,GPS,Installed,Operable,"Devil's Punchbowl Park",California,SW,34.4134144267429,-117.86013280008777,1430.8782899696132,USGS,,GPS,0,,,,,OK
DYH2,GPS,Installed,Operable,"Downey High 2",California,SW,33.93831623208679,-118.12746452591475,10.82429884239907,USGS,,GPS,1,-1,-1,0,0,OK
E1G2,GPS,Installed,Operable,"Mount Erebus",Antarctica,AntA,-77.530376901,167.139552619,3654.3545,Polar,Polar,GPS,0,,,,,"Status Unavailable"
E22K,GPS,Installed,Operable,"Anaktuvuk Pass",Alaska,AK,68.13435,-151.81303,775.3,Other,Other,GPS,0,,,,,"Status Unavailable"
ECFS,GPS,Installed,Operable," El Cariso",CA,SW,33.64768657047903,-117.41169992746507,801.4241393926054,PBO,"NOTA, PBO",GPS,1,81,77,100,100,"Status Unavailable"
ECHO,GPS,Installed,Operable,"Lincoln County",NV,East,37.91553274358645,-114.26425010961023,1684.1250401885256,PBO,"NOTA, PBO","GPS, Meteorological Stations",1,225,325,99,100,OK
ECSD,GPS,Installed,Operable,Brandon,SD,East,43.73369938731105,-96.61400933839087,444.3639057839567,PBO,"NOTA, PBO","GPS, Meteorological Stations",1,102,98,100,100,OK
EDCR,GPS,Installed,Operable,Adak,Alaska,AK,57.07178,-135.70085,636,USGS,,GPS,0,,,,,OK
EDEC,GPS,Installed,Operable,Sitka,Alasak,AK,57.04386,-135.70909,283,USGS,,GPS,0,,,,,OK
EDNW,GPS,Installed,Inoperable,Adak,Alaska,AK,57.063022,-135.783704,362,USGS,,GPS,0,,,,,OK
EDPP,GPS,Installed,Operable,Grapevine,CA,SW,34.94619554609153,-118.830412864155,379.87790955551054,PBO,"NOTA, PBO",GPS,1,-1,-1,88,100,OK
EDSO,GPS,Installed,Operable,Sitka,Alaska,AK,57.02822,-135.78752,227,USGS,,GPS,0,,,,,OK
EGAN,GPS,Installed,Operable,Ely,NV,East,39.345242742721496,-114.93885717148311,1998.2881491911642,PBO,"NOTA, PBO",GPS,1,448,430,100,100,OK
ELEN,GPS,Installed,Operable,"Santa Elena",,Coco,16.91605617302101,-89.8676144127291,118.14041547267963,COCONet,"NOTA, COCONet","GPS, Meteorological Stations",0,,,,,"Status Unavailable"
ELKO,GPS,Installed,Operable,Elko,NV,East,40.9146894933735,-115.81720098054438,2016.9087293157286,PBO,"NOTA, PBO",GPS,1,110,75,100,100,OK
ELLY,GPS,Installed,Operable,"Long Beach",CA,SW,33.58350018136094,-118.1287905235067,-2.86940930541675,"SoCal Edison","NOTA, SoCal Edison","GPS, Meteorological Stations",1,233,224,99,100,OK
ELMA,GPS,Installed,Operable,Leon,,Coco,12.46583574851025,-86.67475001072268,445.21561490569695,Other,Other,GPS,0,,,,,"Status Unavailable"
ELSC,GPS,Installed,Operable,"Los Angeles",California,SW,34.02973594552565,-118.2084383647406,61.165885234517134,USGS,,GPS,1,-1,-1,0,0,OK
ELTN,GPS,Installed,Operable,"Elizabeth Lake Tunnel North",California,SW,34.70311870147179,-118.42573396902901,916.5126466582401,USGS,,GPS,1,-1,-1,85,100,OK
ELTS,GPS,Installed,Operable,"Lake Hughes",California,SW,34.599291893426404,-118.45376328483806,887.1094808087911,USGS,,GPS,0,,,,,"Status Unavailable"
ELVI,GPS,Installed,Operable,Filadelfia,Guanacaste,noUS,10.394696255989109,-85.44580607010852,81.8515668261756,PI,PI,GPS,0,,,,,OK
EMIG,GPS,Installed,Operable,"Idaho Falls ",Idaho,N/A,44.07438516996499,-112.92747187817312,1946.0298104528065,Other,Other,GPS,0,,,,,"Status Unavailable"
EOCG,GPS,Installed,Operable,"Santa Barbara",California,SW,34.450848755621564,-119.7697809388242,42.48186545729056,USGS,,GPS,1,-1,-1,99,100,OK
EPZA,GPS,Installed,Operable,Esperanza,Guanacaste,noUS,10.140938854818208,-85.56806434415608,668.6045539933315,PI,PI,GPS,0,,,,,OK
ESN1,BSM,Installed,Operable,Esenkoy,,N/A,40.5963,28.9223,2,GONAF,"NOTA, GONAF","Borehole Strainmeters, Seismometers, Meteorological Stations",0,,,,,"Status Unavailable"
ESRS,GPS,Installed,Operable,"Socorro ","New Mexico",East,34.073662,-106.918873,1416.3,Other,Other,GPS,0,,,,,OK
ESRX,GPS,Installed,Operable,"Socorro ","New Mexico",East,34.073662,-106.918873,1416.3,Other,Other,GPS,0,,,,,OK
EUCH,GPS,Installed,Operable,"Lincoln City",OR,NW,44.83474157733337,-123.87081130358024,721.9379287149424,PBO,"NOTA Affiliated, PBO",GPS,1,-1,-1,100,100,OK
EWPP,GPS,Installed,Operable,"Rancho Cucamonga",CA,SW,34.104200259314375,-117.52559018185883,330.49763346358236,PBO,"NOTA, PBO",GPS,1,1157,1156,100,100,OK
EYC2,GPS,Installed,Operable,Cordova,AK,AK,60.548751583,-145.750117361,135.99,PBO,"NOTA, PBO",GPS,1,-1,-1,0,0,OK
FALL,GPS,Installed,Operable,"Transantarctic Mountains",Antarctica,AntA,-85.3064,-143.6317,262.1,Polar,Polar,"GPS, Meteorological Stations",0,,,,,"Status Unavailable"
FCDE,GPS,Installed,Operable,Miami,Florida,N/A,25.61725589928803,-80.30535082352333,-24.408063397699358,PI,PI,GPS,0,,,,,OK
FCHO,GPS,Installed,Operable,Miami,Florida,N/A,25.908026989353438,-80.12480522095763,-24.55608304982304,PI,PI,GPS,0,,,,,OK
FCI1,GPS,Installed,Operable,"North Miami",Florida,N/A,25.90570464200999,-80.13745255104794,-22.723942536794794,PI,PI,GPS,0,,,,,OK
FCI2,GPS,Installed,Operable,"North Miami",Florida,N/A,25.905840684340365,-80.13835877475162,-24.64821989380373,PI,PI,GPS,0,,,,,OK
FERN,GPS,Installed,Operable,"Ash Fork",AZ,East,35.3418713063427,-112.45473917635923,1767.9303248290846,PBO,"NOTA, PBO",GPS,1,62,37,100,100,OK
FGST,GPS,Installed,Operable,"Los Olivos",CA,SW,34.73301248830423,-120.00938761294671,904.1061886181858,PBO,"NOTA, PBO",GPS,1,51,52,100,100,OK
FHOG,GPS,Installed,Operable,"Forest Falls",California,SW,34.09354745490443,-116.93587179316322,1588.7004583149728,USGS,,GPS,1,-1,-1,99,100,OK
FIE0,GPS,Installed,Operable,"Franklin Island",Antarctica,AntA,-76.14459329,168.42352848,153.7055,Polar,Polar,"GPS, Meteorological Stations",0,,,,,"Status Unavailable"
FLM5,GPS,Installed,Operable,"Wright Valley",Antarctica,AntA,-77.532729597,160.271408855,1869.8231,Polar,Polar,GPS,0,,,,,OK
FMTP,GPS,Installed,Operable,Fillmore,California,SW,34.4098646,-118.89414446,362.7831,USGS,,GPS,1,-1,-1,0,0,OK
FMVT,GPS,Installed,Operable,Fillmore,CA,SW,34.35633900819466,-118.88403736787578,617.0172566455036,PBO,"NOTA, PBO",GPS,1,5,4,100,100,OK
FONP,GPS,Installed,Operable,"Graham Land",Antarctica,AntA,-65.24542353,-61.64680086,65.4673,Polar,Polar,"GPS, Meteorological Stations",0,,,,,"Status Unavailable"
FOOT,GPS,Installed,Operable,Gandy,UT,East,39.36939592252272,-113.8053756688098,1547.3991478348623,PBO,"NOTA, PBO",GPS,1,77,67,100,100,OK
FORE,GPS,Installed,Operable,"HEBER CITY",UT,East,40.51189582259478,-111.38033034430788,1796.6848578998527,PBO,"NOTA, PBO",GPS,1,110,108,100,100,OK
FOS1,GPS,Installed,Operable,Antarctica,Antarctica,AntA,-71.31334,-68.32084,158.8,Polar,Polar,GPS,0,,,,,"Status Unavailable"
FOXG,GPS,Installed,Operable,Lancaster,California,SW,34.73391292685405,-118.24050245442479,688.7973965023843,USGS,,GPS,1,-1,-1,100,100,OK
FRED,GPS,Installed,Operable,Fredonia,AZ,East,36.98833120933155,-112.49921951753635,1529.7435564373802,PBO,"NOTA, PBO",GPS,1,128,127,100,100,OK
FRKI,GPS,Installed,Operable,"Franklin Island",Antarctica,AntA,-76.1644,168.3828,0,Polar,Polar,GPS,0,,,,,"Status Unavailable"
FS63,GPS,Installed,Operable,Wasilla,AK,AK,61.4696722433341,-149.72328113575023,43.620967699612706,PI,PI,GPS,0,,,,,"Status Unavailable"
FS82,GPS,Installed,Operable,"Big Lake",AK,N/A,61.54870032401497,-149.81606895900265,60.79219609603794,PI,PI,GPS,0,,,,,OK
FSFB,GPS,Installed,Operable,"Sugar Land",Texas,N/A,29.556188,-95.63045,2,PI,PI,GPS,0,,,,,OK
FSTH,GPS,Installed,Operable,"Al Hoceima",,noUS,35.175024,-3.863193,72.1,Other,Other,GPS,0,,,,,"Status Unavailable"
FTP4,GPS,Installed,Operable,"Transantarctic Mountains",Antarctica,AntA,-78.9277,162.5647,243.2,Polar,Polar,GPS,0,,,,,"Status Unavailable"
FZHS,GPS,Installed,Operable,"Frazier Mountain",California,SW,34.80019488896825,-118.89338537844256,1273.7573193456017,USGS,,GPS,1,-1,-1,99,100,OK
GANJ,GPS,Installed,Operable,Ganja,,noUS,40.68038,46.3613,443.499,Other,Other,GPS,0,,,,,"Status Unavailable"
GARL,GPS,Installed,Operable,Empire,NV,NW,40.41652594371377,-119.35545990634265,1640.2544207267663,PBO,"NOTA, PBO",GPS,1,1175,1181,100,100,OK
GCEA,GPS,Installed,Operable,"George Town",,Coco,19.293020597379115,-81.37802468242938,16.056792616888284,COCONet,"NOTA Affiliated, COCONet",GPS,0,,,,,OK
GCFS,GPS,Installed,Operable,"North Side","Grand Cayman",Coco,19.312862523601108,-81.18353427551494,-10.75068754829513,COCONet,"NOTA Affiliated, COCONet","GPS, Meteorological Stations",0,,,,,OK
GDEC,GPS,Installed,Operable,"California Valley",California,SW,35.189417348535336,-119.86368614795674,566.2800125091745,USGS,,GPS,1,-1,-1,100,100,OK
GHRG,GPS,Installed,Operable,Ghorjomi,,noUS,41.7347299234,42.3408330432,1992.81887,Other,Other,GPS,0,,,,,"Status Unavailable"
GHRP,GPS,Installed,Operable,"San Bernardino",California,SW,34.20389091387152,-117.3978992488243,628.6179925836648,USGS,,GPS,1,-1,-1,100,100,OK
GLDK,GPS,Installed,Operable,Antarctica,Antarctica,AntA,-72.23305,-100.58758,55.7,Polar,Polar,"GPS, Meteorological Stations",0,,,,,"Status Unavailable"
GLRS,GPS,Installed,Operable,Niland,CA,SW,33.274811438607166,-115.52137392300429,-48.62643489046879,PBO,"NOTA, PBO",GPS,1,221,328,100,100,OK
GLS1,GPS,Installed,Operable,"Raven Camp",Greenland,Arct,66.4793959439,-46.3101516098,2150,Polar,Polar,GPS,0,,,,,"Status Unavailable"
GLS2,GPS,Installed,Operable,Sermersooq,Greenland,Arct,69.0920641768,-39.6471727984,2917,Polar,Polar,GPS,0,,,,,"Status Unavailable"
GLS3,GPS,Installed,Operable,"Neem Camp",Greenland,Arct,77.4316951304,-51.1080499792,2480,Polar,Polar,GPS,0,,,,,"Status Unavailable"
GMEZ,GPS,Installed,Operable,Rothera,Antarctica,AntA,-73.88546717,-68.53646064,1420.255,Polar,Polar,"GPS, Meteorological Stations",0,,,,,"Status Unavailable"
GMMA,GPS,Installed,Operable,"NE Greenland National Park",Greenland,Arct,77.80942621060305,-19.65211969868136,521.8367503582843,Polar,Polar,GPS,0,,,,,OK
GMPK,GPS,Installed,Operable,Glamis,CA,SW,33.05108439971487,-114.82734722595288,591.2033207921575,PBO,"NOTA, PBO","GPS, Meteorological Stations",1,71,62,100,100,OK
GMRC,GPS,Installed,Operable,Kelso,CA,SW,34.783996736858946,-115.66023133638944,1298.2252386833463,PBO,"NOTA, PBO",GPS,1,972,257,100,100,OK
GNPS,GPS,Installed,Operable,Parker,CA,SW,34.308555592160786,-114.18945193377337,232.40986106326517,PBO,"NOTA, PBO",GPS,1,28,32,99,100,OK
GOBS,GPS,Installed,Operable,Goldendale,WA,NW,45.83881776428449,-120.81467820294702,621.4787803982152,PBO,"NOTA, PBO",GPS,1,53,54,100,100,OK
GOSH,GPS,Installed,Operable,"West Wendover",NV,East,40.64016774156146,-114.17970055009985,1560.2174224408416,PBO,"NOTA, PBO","GPS, Meteorological Stations",1,1091,1088,100,100,OK
GRNX,GPS,Installed,Operable,Healy,AK,AK,63.835497396715475,-148.9781950020526,594.489845288734,PBO,"NOTA, PBO",GPS,1,128,121,100,100,OK
GROK,GPS,Installed,Operable,"NE Greenland National Park",Greenland,Arct,78.44269961480242,-22.903767122522595,1045.9580687930086,Polar,Polar,GPS,0,,,,,OK
GRRG,GPS,Installed,Operable,"Idaho Falls",Idaho,N/A,42.9377761033981,-111.4216352516419,2198.358907826671,Other,Other,GPS,0,,,,,"Status Unavailable"
GRS2,GPS,Installed,Operable,Socorro,NM,N/A,34.358,-106.6794,1576,Other,Other,GPS,0,,,,,"Status Unavailable"
GRZA,GPS,Installed,Operable,Garza,Guanacaste,noUS,9.915522821314797,-85.63561591278074,39.73106315251495,PI,PI,GPS,0,,,,,OK
GSEC,GPS,Installed,Operable,Spring,Texas,N/A,30.197301,-95.528092,25.4,PI,PI,GPS,0,,,,,OK
GSSC,GPS,Installed,Operable,Adak,Alaska,AK,52.09356,-176.17752,248,USGS,,GPS,0,,,,,OK
GTRG,GPS,Installed,Operable,"Atomic City",ID,East,43.24409080918894,-113.24121566523789,1539.148118604884,PBO,"NOTA, PBO",GPS,1,74,63,100,100,OK
GUAT,GPS,Installed,Operable,"Guatemala City",,Coco,14.590404566233566,-90.52018229463164,1519.8639665043181,COCONet,"NOTA, COCONet","GPS, Meteorological Stations",0,,,,,OK
GUAX,GPS,Installed,Operable,"Guadalupe Island",Baja,Mex,28.88406288475854,-118.28969061476022,40.49718030650423,TLALOCNet,"NOTA, TLALOCNet","GPS, Meteorological Stations",1,-1,-1,0,0,"Status Unavailable"
GUDA,GPS,Installed,Operable,Gudauri,,noUS,42.44382599,44.49065241,1870.2507,Other,Other,GPS,0,,,,,"Status Unavailable"
GV01,GPS,Installed,Operable,Villamil,"Isabella Island",noUS,-0.7824046126914737,-91.11337588703145,1043.9856945249612,PI,PI,GPS,0,,,,,OK
GV02,GPS,Installed,Operable," Villamil ","Isabella Island",noUS,-0.8147160099919188,-91.13293125599529,949.7194993967595,PI,PI,GPS,0,,,,,OK
GV03,GPS,Installed,Operable,Villamil,,noUS,-0.7978040638403084,-91.13293460810155,927.51807611989,PI,PI,GPS,0,,,,,OK
GV04,GPS,Installed,Operable,Villamil,,noUS,-0.8114790438531512,-91.13806020847136,948.4094664381023,PI,PI,GPS,0,,,,,OK
GV05,GPS,Installed,Operable,Villamil,,noUS,-0.8049297930353663,-91.12120477739728,914.2763859084974,PI,PI,GPS,0,,,,,OK
GV06,GPS,Installed,Operable,Villamil,,noUS,-0.8343294053177045,-91.12806737451837,966.8647124406749,PI,PI,GPS,0,,,,,OK
GV07,GPS,Installed,Operable,"Sierra Negra Volcano",,noUS,-0.8405222034394959,-91.15261209828105,1027.3811397367592,PI,PI,GPS,0,,,,,OK
GV08,GPS,Installed,Operable,"Sierra Negra Volcano",,noUS,-0.8420022269342011,-91.13440720556025,905.401757634195,PI,PI,GPS,0,,,,,OK
GV09,GPS,Installed,Operable,Villamil,,noUS,-0.8372908844013307,-91.1473641641673,1038.275293700816,PI,PI,GPS,0,,,,,OK
GV10,GPS,Installed,Operable,Villamil,,noUS,-0.8492563959924818,-91.15104641165232,1046.2312389255285,PI,PI,GPS,0,,,,,"Status Unavailable"
GV11,GPS,Installed,Operable,"Puerto Villamil",Galapagos,noUS,-0.9477,-90.9554,11,Other,Other,GPS,0,,,,,"Status Unavailable"
GVRS,GPS,Installed,Operable,"Monterey Park",California,SW,34.047449156170664,-118.11289951009542,154.51523828514212,USGS,,GPS,1,-1,-1,100,100,OK
GZ13,GPS,Installed,Operable,,,AntA,-84.361992,-162.90125,56.3,Polar,Polar,GPS,0,,,,,"Status Unavailable"
GZ20,GPS,Installed,Operable,"Whillans Ice Stream",,AntA,-84.253773,-165.599434,52.8,Polar,Polar,GPS,0,,,,,"Status Unavailable"
GZKA,GPS,Installed,Operable,"Borrego Springs",California,N/A,33.26012526773026,-116.3772777398369,153.18961697949675,PI,PI,GPS,0,,,,,OK
HAAG,GPS,Installed,Operable,"Ellsworth Land",Antarctica,AntA,-77.038,-78.2871,1172.6,Polar,Polar,"GPS, Meteorological Stations",0,,,,,OK
HALK,BSM,Installed,Operable,Istanbul,,N/A,41.05883,28.78633,157.6,GONAF,"NOTA, GONAF","Borehole Strainmeters, Seismometers",0,,,,,"Status Unavailable"
HAR7,GPS,Installed,Operable,Lockhart,California,SW,35.01153,-117.2992,589.25,USGS,,GPS,1,-1,-1,99,100,OK
HBCO,GPS,Installed,Operable,Willmington,California,SW,33.78364890115041,-118.2858006030225,-26.859566276039157,USGS,,GPS,1,-1,-1,100,100,OK
HCC1,GPS,Installed,Operable,Houston,Texas,N/A,29.787876,-95.561221,3.7,PI,PI,GPS,0,,,,,OK
HCES,GPS,Installed,Operable,Troy,TN,N/A,36.33260500894668,-89.17176905841967,77.91905038488918,PI,PI,GPS,0,,,,,OK
HCMN,GPS,Installed,Operable,"Newberry Springs",CA,SW,34.75477350012721,-116.43007775297744,568.7722518722695,PBO,"NOTA, PBO",GPS,1,225,229,100,100,OK
HCRO,GPS,Installed,Operable,"Hat Creek",CA,NW,40.81591690579455,-121.46990203999098,1000.1215861138633,PBO,"NOTA, PBO",GPS,1,-1,-1,0,0,OK
HDIL,GPS,Installed,Operable,Hopedale,IL,East,40.555885882915035,-89.29399112462465,199.93144485804442,PBO,"NOTA, PBO",GPS,1,-1,-1,100,100,OK
HEL2,GPS,Installed,Operable,Sermersooq,Greenland,Arct,66.40115804966656,-38.21570840584536,425.00304176891655,Polar,Polar,GPS,0,,,,,OK
HERH,GPS,Installed,Operable,Leon,Leon,N/A,12.609313713193204,-86.83100828091415,739.4984541004932,Other,Other,GPS,0,,,,,"Status Unavailable"
HIVI,GPS,Installed,Operable,"High Vista",CA,SW,34.75992104497584,-117.7994572457736,930.8953846773032,PBO,"NOTA, PBO",GPS,1,2,0,100,100,OK
HJOR,GPS,Installed,Operable,Sermersooq,Greenland,Arct,63.418210656666545,-41.14787067633648,762.7172796259833,Polar,Polar,GPS,0,,,,,OK
HLNE,GPS,Installed,Operable,Huala,Maule,noUS,-35.004639,-71.744833,50.915,Other,Other,GPS,0,,,,,"Status Unavailable"
HMBG,GPS,Installed,Operable,"NE Greenland National Park",Greenland,Arct,73.67598261237235,-28.12907276003716,1322.8999673422004,Polar,Polar,GPS,0,,,,,OK
HMTG,GPS,Installed,Operable,Hemet,California,SW,33.7080979832994,-117.00150594775945,577.0402926677609,USGS,,GPS,1,-1,-1,100,100,"Status Unavailable"
HNPS,GPS,Installed,Operable,"Desert Center",CA,SW,33.70500525415826,-115.63533772056726,393.9552743107721,PBO,"NOTA, PBO",GPS,1,1191,1446,100,100,OK
HOG2,GPS,Installed,Operable,"Mount Erebus",Antarctica,AntA,-77.5316,166.9326,2107,Polar,Polar,GPS,0,,,,,OK
HOGS,GPS,Installed,Operable,Parkfield,CA,N/A,35.866717627514916,-120.47950145106029,762.8753461118827,PBO,"NOTA Affiliated, PBO",GPS,0,,,,,"Status Unavailable"
HOL3,GPS,Installed,Operable,Pearblossom,California,SW,34.4581567464121,-117.84513115916513,1239.443542547169,USGS,,GPS,1,-1,-1,100,100,OK
HOLP,GPS,Installed,Operable,Hollydale,California,SW,33.924542569042124,-118.16817693049356,-6.748197841187591,USGS,,"GPS, Meteorological Stations",1,-1,-1,0,0,OK
HOWE,GPS,Installed,Operable,"Transantarctic Mountains",Antarctica,AntA,-87.4157,-149.4335,2584.7,Polar,Polar,"GPS, Meteorological Stations",0,,,,,"Status Unavailable"
HOWN,GPS,Installed,Operable,"Sentinel Range",Antarctica,AntA,-77.528,-86.7673,1478.5,Polar,Polar,"GPS, Meteorological Stations",0,,,,,OK
HPEK,GPS,Installed,Operable,Katy,Texas,N/A,29.754878,-95.715723,13,Other,Other,GPS,0,,,,,OK
HPIG,GPS,Installed,Operable,"Idaho Falls",Idaho,noUS,43.71327881906694,-113.10013079848929,2640.712292989246,Other,Other,GPS,0,,,,,"Status Unavailable"
HRDG,GPS,Installed,Operable,"NE Greenland National Park",Greenland,Arct,81.8798325096243,-44.51738040505296,718.4403617188942,Polar,Polar,GPS,0,,,,,OK
HRNP,GPS,Installed,Operable,Khulna,,noUS,21.81641,89.45941,-45.468,PI,PI,GPS,0,,,,,"Status Unavailable"
HSMN,GPS,Installed,Operable,Houston,Texas,N/A,29.800355,-95.469616,2.9,PI,PI,GPS,0,,,,,OK
HTON,GPS,Installed,Operable,Antarctica,Antarctica,AntA,-74.08001,-61.73059,950.5,Polar,Polar,"GPS, Meteorological Stations, Meteorological Stations",0,,,,,"Status Unavailable"
HUA2,GPS,Installed,Operable,"Huacas de Honcha",Guanacaste,noUS,10.01773156845475,-85.35169357906591,594.2275572382088,PI,PI,GPS,0,,,,,OK
HUGO,GPS,Installed,Operable,"Hugo Island",Antarctica,AntA,-64.96258,-65.66756,20,Polar,Polar,"GPS, Meteorological Stations",0,,,,,"Status Unavailable"
HUNT,GPS,Installed,Operable,Parkfield,CA,N/A,35.88081282966293,-120.40238648890141,449.36223548199945,PBO,"NOTA Affiliated, PBO",GPS,0,,,,,"Status Unavailable"
HVWY,GPS,Installed,Operable,Yellowstone,WY,East,44.61360014237056,-110.53596490824756,2406.8317318519184,PBO,"NOTA, PBO",GPS,0,,,,,OK
HVYS,GPS,Installed,Operable,Ojai,CA,SW,34.44123313806554,-119.18754706613774,373.9595213375568,PBO,"NOTA, PBO",GPS,1,3370,1230,99,100,OK
HWFG,GPS,Installed,Operable,"Idaho Falls",Idaho,N/A,43.92745156949829,-113.09667241715962,1716.2420403960584,Other,Other,GPS,0,,,,,"Status Unavailable"
HWUT,GPS,Installed,Operable,Hyrum,UT,East,41.60723997707565,-111.5651181217709,1714.9682321287596,PBO,"NOTA, PBO",GPS,0,,,,,OK
I40A,GPS,Installed,Operable,"Bristol Mountains",CA,SW,34.72732402169949,-115.9114508976431,765.3341219808833,PBO,"NOTA, PBO",GPS,1,32,37,100,100,OK
IAGX,GPS,Installed,Operable,"Isla Angel de la Guarda","Baja California",Mex,29.026560270953414,-113.17187819120682,152.4387847401885,Other,Other,GPS,0,,,,,"Status Unavailable"
ICIG,GPS,Installed,Operable,"Idaho Falls",Idaho,N/A,44.33033902376842,-112.94149703729786,2502.43994196178,Other,Other,GPS,0,,,,,"Status Unavailable"
ICPS,GPS,Installed,Operable,Kulaura,,noUS,24.403792,92.037719,20,PI,PI,GPS,0,,,,,"Status Unavailable"
IDOG,GPS,Installed,Operable,"Indio Hills",California,SW,33.796798109610386,-116.22151644479055,434.9553892925911,USGS,,GPS,1,-1,-1,99,100,OK
IDQG,GPS,Installed,Operable,Indio,California,SW,33.767973814314146,-116.2389869941064,-1.299191228340019,USGS,,GPS,1,-1,-1,99,100,OK
IFR1,GPS,Installed,Operable,IFRANE,N/A,noUS,33.513937,-5.125524,1710,Other,Other,GPS,0,,,,,"Status Unavailable"
IID2,GPS,Installed,Operable,Holtville,CA,SW,32.706168234992276,-115.03180458943709,9.76158975794634,PBO,"NOTA, PBO",GPS,1,69,65,100,100,OK
IMPS,GPS,Installed,Operable,Rice,CA,SW,34.15756245358416,-115.14510201833997,563.250935939993,PBO,"NOTA, PBO",GPS,1,416,452,99,100,OK
IND1,GPS,Installed,Operable,"Punta Indio",Guanacaste,noUS,9.864624963212547,-85.50219641637949,75.20164399281559,PI,PI,"GPS, Meteorological Stations",0,,,,,OK
INMN,GPS,Installed,Operable,Antarctica,Antarctica,AntA,-74.820865,-98.880456,678,Polar,Polar,"GPS, Meteorological Stations",0,,,,,OK
ISCO,GPS,Installed,Operable,,"Coconos Island",Coco,5.544349057188544,-87.05582718365457,10.36170662645955,COCONet,"NOTA, COCONet","GPS, Meteorological Stations",0,,,,,"Status Unavailable"
ISGN,GPS,Installed,Inoperable,Issaguen,,noUS,34.932189,-4.548291,1640,Other,Other,GPS,0,,,,,"Status Unavailable"
ISLK,GPS,Installed,Operable,Kernville,CA,SW,35.66227128590129,-118.47430471612148,823.404083977331,PBO,"NOTA, PBO",GPS,1,60,71,100,100,OK
IWAW,GPS,Installed,Operable,,,noUS,-1.9346031381489304,29.14724786936906,1517.4047498709504,PI,PI,GPS,1,-1,697,99,97,OK
JCFI,GPS,Installed,Operable,Leon,Leon,noUS,12.683744593672152,-86.82826795851804,44.131804504379275,Other,Other,GPS,0,,,,,"Status Unavailable"
JFWS,GPS,Installed,Operable,"Iowa County",WI,East,42.91427147247589,-90.24810868994905,293.600729248379,PBO,"NOTA, PBO",GPS,0,,,,,OK
JGBL,GPS,Installed,Operable,"NE Greenland National Park",Greenland,Arct,82.20875903356395,-31.00420823941306,753.2650335099258,Polar,Polar,GPS,0,,,,,OK
JME2,GPS,Installed,Operable,Jacmel,Haiti,Coco,18.235047859484414,-72.53840600848804,-8.419564024615353,COCONet,"NOTA, COCONet","GPS, Meteorological Stations",1,5,14,95,100,OK
JMEL,GPS,Installed,Inoperable,Jacmel,Sud-Est,N/A,18.23470858039405,-72.53632894017278,6.697323057459918,Other,Other,GPS,0,,,,,"Status Unavailable"
JNHG,GPS,Installed,Operable,"Juniper Hills",California,SW,34.449065426530055,-117.95544195734695,1276.165631476127,USGS,,GPS,1,-1,-1,98,99,OK
JNSN,GPS,Installed,Operable,Antarctica,Antarctica,AntA,-73.0765,-66.10219,1374,Polar,Polar,"GPS, Meteorological Stations",0,,,,,"Status Unavailable"
JRSN,GPS,Installed,Operable,Koyra,,N/A,22.248032,89.344444,-53.8,PI,PI,GPS,0,,,,,OK
JURI,GPS,Installed,Operable,Sagarnal,,noUS,24.498418,92.135305,-30,PI,PI,GPS,0,,,,,"Status Unavailable"
JWLF,GPS,Installed,Operable,"NE Greenland National Park",Greenland,Arct,83.11165392945166,-45.11984462570666,112.8847347065841,Polar,Polar,GPS,0,,,,,OK
KAEO,GPS,Installed,Operable,"Puu Kaeo, MolokaI",Hawaii,N/A,21.215421909,-157.226747434,170.1549,PI,PI,GPS,1,53,30,99,100,OK
KAGA,GPS,Installed,Operable,Ilulissat,Greenland,Arct,69.22230197565173,-49.814633113095056,150.02157004383506,Polar,Polar,GPS,0,,,,,OK
KAGZ,GPS,Installed,Operable,Qaasuitsup,Greenland,Arct,79.13195880729147,-65.85296503685254,86.64278469576409,Polar,Polar,GPS,0,,,,,OK
KALW,GPS,Installed,Operable,Kalewa,"Sagaing ",N/A,23.197,94.304,64.488,PI,PI,GPS,0,,,,,"Status Unavailable"
KANZ,GPS,Installed,Operable,,,noUS,-1.646345453614011,29.37811388269381,2299.3072038992327,PI,PI,GPS,1,964,987,99,99,"Status Unavailable"
KASP,GPS,Installed,Operable,Kaspi,,noUS,41.91987853,44.42855228,572.4195,Other,Other,GPS,0,,,,,"Status Unavailable"
KBRC,GPS,Installed,Operable,"Santa Paula",CA,SW,34.39853002269352,-119.0082035529147,370.5056047968412,PBO,"NOTA, PBO","GPS, Meteorological Stations",1,375,347,100,100,OK
KBUG,GPS,Installed,Operable,Sermersooq,Greenland,Arct,65.14368295671805,-41.15754777647294,290.72032489850227,Polar,Polar,GPS,0,,,,,OK
KCHI,GPS,Installed,Operable,Karachi,None,noUS,24.9314,67.1129,8.9,Other,Other,GPS,0,,,,,"Status Unavailable"
KEPA,GPS,Installed,Operable,"Robertson Island",Antarctica,AntA,-54.29524,-36.51426,346,Polar,Polar,"GPS, Meteorological Stations",0,,,,,"Status Unavailable"
KHEP,GPS,Installed,Operable,Khepupara,,N/A,21.98668,90.21968,0,PI,PI,GPS,0,,,,,"Status Unavailable"
KHL2,GPS,Installed,Operable,Khulna,,noUS,22.80217,89.53273,-36,PI,PI,GPS,0,,,,,OK
KHLR,GPS,Installed,Operable,"Marie Byrd Land",Antarctica,AntA,-76.15464,-120.72867,1862,Polar,Polar,"GPS, Meteorological Stations",0,,,,,"Status Unavailable"
KHMG,GPS,Installed,Operable,Khamiskuri,,noUS,42.4052264267,41.8168773842,284.06,Other,Other,GPS,0,,,,,"Status Unavailable"
KIOS,GPS,Installed,Operable,Leon,,Coco,12.49432020924127,-86.70171164938864,490.00610227122144,Other,Other,GPS,0,,,,,"Status Unavailable"
KKAI,GPS,Installed,Operable,"Ocean View Estates",Hawaii,N/A,19.065899,-155.799029,411.9,PI,PI,GPS,1,104,107,99,100,OK
KKES,GPS,Installed,Operable,Houston,Texas,N/A,29.850327,-95.594934,9.6,PI,PI,GPS,0,,,,,OK
KLAY,GPS,Installed,Operable,Kale,Chin,N/A,23.19278,94.06444,62.637,PI,PI,GPS,0,,,,,"Status Unavailable"
KMBR,GPS,Installed,Operable,,,noUS,-1.8273615310810822,29.292585374001366,1471.763218313824,PI,PI,GPS,1,-1,-1,99,100,OK
KMJP,GPS,Installed,Operable,"NE Greenland National Park",Greenland,Arct,83.64323831222542,-33.37708836694782,85.14101941127382,Polar,Polar,GPS,0,,,,,OK
KMOR,GPS,Installed,Operable,na,"Washington Land",Arct,81.25271511527058,-63.52740794213645,203.33411992147288,Polar,Polar,GPS,0,,,,,OK
KROT,GPS,Installed,Operable,Crotone,Calabria,noUS,39.08003333,17.12511667,24,Other,Other,GPS,0,,,,,"Status Unavailable"
KSNB,GPS,Installed,Operable,Sermersooq,Greenland,Arct,66.86328114315877,-35.57631841019162,1721.0150290136762,Polar,Polar,GPS,0,,,,,OK
KSU1,GPS,Installed,Operable,Manhattan,KS,East,39.10075001322622,-96.60948255484442,325.59549231654125,PBO,"NOTA, PBO",GPS,1,0,1,98,79,OK
KTBW,GPS,Installed,Operable,Bremerton,WA,NW,47.54731897205412,-122.79541904605344,491.57848232518467,PBO,"NOTA, PBO",GPS,1,6,1,100,100,OK
KUAH,GPS,Installed,Operable,Naalehu,Hawaii,N/A,19.051218,-155.5765604,206.2,PI,PI,GPS,1,84,88,99,100,"Status Unavailable"
KUAQ,GPS,Installed,Operable,Sermersooq,Greenland,Arct,68.58700008981741,-33.05274969664583,865.168375096718,Polar,Polar,GPS,0,,,,,OK
KUGE,GPS,Installed,Operable,Dhulikhel,,noUS,27.61842,85.53854,1511,Other,Other,GPS,1,-1,-1,0,0,OK
KULL,GPS,Installed,Operable,Kullorsuaq,Greenland,Arct,74.58062513588854,-57.227062270268505,94.06863876019398,Polar,Polar,GPS,0,,,,,"Status Unavailable"
KULU,GPS,Installed,Operable,Kulusuk,Greenland,Arct,65.57933603049455,-37.14936023871297,67.55552504385138,Polar,Polar,GPS,0,,,,,"Status Unavailable"
KUPR,GPS,Installed,Operable,,Alaska,AK,55.59127520616035,-159.68819940557947,341.564727156002,PI,PI,GPS,0,,,,,OK
KVTX,GPS,Installed,Operable,Kingsville,TX,East,27.545950576568213,-97.89288409056707,-2.6141570319440723,PBO,"NOTA, PBO","GPS, Meteorological Stations",1,89,92,99,100,OK
LA02,GPS,Installed,Operable,"Whillans Ice Stream",Antarctica,AntA,-84.639484449,-150.104572645,114.618,Polar,Polar,GPS,0,,,,,"Status Unavailable"
LA06,GPS,Installed,Operable,,,AntA,-84.376532,-154.142937,107.2,Polar,Polar,GPS,0,,,,,"Status Unavailable"
LA07,GPS,Installed,Operable,,,AntA,-84.601457,-154.436079,73.5,Polar,Polar,GPS,0,,,,,"Status Unavailable"
LA09,GPS,Installed,Operable,"Whillans Ice Stream",Antarctica,AntA,-84.247467895,-153.640932747,89.816,Polar,Polar,GPS,0,,,,,"Status Unavailable"
LA10,GPS,Installed,Operable,,,AntA,-84.3283,-158.219617,63.2,Polar,Polar,GPS,0,,,,,"Status Unavailable"
LA14,GPS,Installed,Operable,,,AntA,-84.484334,-157.593739,71.1,Polar,Polar,GPS,0,,,,,"Status Unavailable"
LA16,GPS,Installed,Operable,,,AntA,-84.533002,-159.912484,85.7,Polar,Polar,GPS,0,,,,,"Status Unavailable"
LAFE,GPS,Installed,Operable,Paquera,Puntarenas,noUS,9.807062483144184,-84.96028253078595,65.31199978318473,PI,PI,GPS,0,,,,,OK
LAGO,GPS,Installed,Operable,,,N/A,-47.21214,-73.26173,436,Other,Other,GPS,0,,,,,"Status Unavailable"
LAND,GPS,Installed,Operable,Parkfield,CA,N/A,35.89979361084561,-120.4732891797895,568.5846538002488,PBO,"NOTA Affiliated, PBO",GPS,0,,,,,"Status Unavailable"
LAPC,GPS,Installed,Operable,"Woodland Hills",CA,SW,34.18192469555455,-118.57465649565083,207.83598580594057,PBO,"NOTA, PBO",GPS,1,63,70,100,100,OK
LBC1,GPS,Installed,Operable,"Los Angeles",California,SW,33.83207259192188,-118.13718905550436,-21.959863483262026,USGS,,GPS,1,-1,-1,0,0,OK
LBCH,GPS,Installed,Operable,"Long Beach",California,SW,33.787772977058744,-118.20334941953246,-27.546438534441517,USGS,,GPS,1,-1,-1,100,100,OK
LBEG,GPS,Installed,Operable,Antarctica,Antarctica,AntA,-77.71354,162.44882,13.7,Polar,Polar,GPS,0,,,,,"Status Unavailable"
LBIB,GPS,Installed,Operable,"NE Greenland National Park",Greenland,Arct,75.89380909201748,-23.8529458900245,1483.4804272324343,Polar,Polar,GPS,0,,,,,OK
LBWG,GPS,Installed,Operable,Antarctica,Antarctica,AntA,-77.72007,162.29891,13.3,Polar,Polar,GPS,0,,,,,"Status Unavailable"
LCEC,GPS,Installed,Operable,"La Concordia",,noUS,0.0173,-79.3692,238,Other,Other,GPS,0,,,,,"Status Unavailable"
LCHS,GPS,Installed,Operable,Tiptonville,Tennessee,N/A,36.37641851729268,-89.47211913468061,63.1723662940178,PI,PI,GPS,0,,,,,OK
LCSB,GPS,Installed,Operable,"Little Cayman",,Coco,19.667561211135407,-80.08208779314498,-8.177214491761966,COCONet,"NOTA Affiliated, COCONet","GPS, Meteorological Stations",0,,,,,"Status Unavailable"
LDES,GPS,Installed,Operable,Landers,CA,SW,34.26734001361069,-116.43280628052804,978.1152250343974,PBO,"NOTA, PBO",GPS,1,299,451,99,100,OK
LDSW,GPS,Installed,Operable,Ludlow,CA,SW,34.699426093197005,-116.20914446767028,640.9814266525984,PBO,"NOTA, PBO",GPS,1,-1,-1,100,100,OK
LEE2,GPS,Installed,Operable,"Mt Lee #2 (Hollywood Sign)",California,SW,34.1346,-118.3218,484.873,USGS,,GPS,1,-1,-1,0,0,OK
LEFN,GPS,Installed,Operable,"NE Greenland National Park",Greenland,Arct,80.45668355277681,-26.293464810655166,692.1097903268528,Polar,Polar,GPS,0,,,,,OK
LEHG,GPS,Installed,Operable,"Mount Erebus",Antarctica,AntA,-77.510662943,167.14107444,3346.1868,Polar,Polar,GPS,0,,,,,"Status Unavailable"
LEME,GPS,Installed,Operable,Leon,Leon,N/A,12.427432812653514,-86.90948022316223,78.21206652916996,PI,PI,GPS,1,-1,-1,100,100,"Status Unavailable"
LEPA,GPS,Installed,Operable,Lepanto,Puntarenas,noUS,9.94537471871859,-85.03119412823469,20.984075591987143,PI,PI,GPS,0,,,,,OK
LEWI,GPS,Installed,Operable,"Mt. Lewis",NV,East,40.40351154624177,-116.86187551954612,2916.7184615109923,PBO,"NOTA, PBO",GPS,1,86,58,99,100,OK
LFLG,GPS,Installed,Operable,Antarctica,Antarctica,AntA,-77.61021,163.14672,-34.5,Polar,Polar,GPS,0,,,,,"Status Unavailable"
LFRL,GPS,Installed,Operable,McMurdo,,AntA,-77.6053,163.1217,-30.4,Polar,Polar,GPS,0,,,,,"Status Unavailable"
LFRS,GPS,Installed,Operable,"Beverly Hills",CA,SW,34.09507288252241,-118.41283115011078,146.92884105839894,PBO,"NOTA, PBO",GPS,1,59,109,100,100,OK
LGC1,GPS,Installed,Operable,Houston,Texas,N/A,30.044596,-94.074547,-12.8,Other,Other,GPS,0,,,,,"Status Unavailable"
LGNE,GPS,Installed,Operable,Leogane,Ouest,Coco,18.507510283727996,-72.63079151314054,2.4564807502379544,COCONet,"NOTA Affiliated, COCONet",GPS,0,,,,,"Status Unavailable"
LGWD,GPS,Installed,Operable,"Laguna Woods",CA,SW,33.64059788050658,-117.76445463737903,88.7178543000318,"SoCal Edison","NOTA, SoCal Edison",GPS,1,272,293,100,100,OK
LHOE,GPS,Installed,Operable,"Kukri Hills",Antarctica,AntA,-77.623131,162.901319,29.04,Polar,Polar,GPS,0,,,,,"Status Unavailable"
LHRG,GPS,Installed,Operable,Antarctica,Antarctica,AntA,-77.62743,162.91024,22.7,Polar,Polar,GPS,0,,,,,"Status Unavailable"
LIA1,GPS,Installed,Operable,Waskish,MN,N/A,48.26464888,-94.69125413,337.1949,Other,Other,GPS,0,,,,,"Status Unavailable"
